key,name,ramo,unidad,state,lat,lng,advance,monto_total_inversion,ciclo,classification,ejercido
'06096390005,China - Méndez,9,Centro SCT Nuevo León,19,25.691845,-99.18091,92.85,238060917,2016,,0
'05096320036,La Providencia - Santa Rosa,9,Centro SCT Guerrero,12,17.098052,-99.817852,27.1,275287738,2017,Comunicaciones y Transportes,57301
'05096400010,San Idelfonso - Santa Cruz Zenzontepec.,9,Centro SCT Oaxaca,20,16.535627,-96.977445,72.54,361931597,2017,Comunicaciones y Transportes,36930793
'06096470005,Construccion y Ampliacion de la Carretera Estacion Chontalpa - Entronque Autopista Las Choapas - Ocozocoautla,9,Centro SCT Tabasco,27,17.8931,-94.088,74,726947613,2017,Comunicaciones y Transportes,113937427
'07096280001,Nonoava - Norogachi - Rocheachi - E.C. Creel - Guachochi,9,Centro SCT Chihuahua,8,27.478393,-106.744913,100,535938174,2016,,0
'07096330006,Actopan-Atotonilco,9,Centro SCT Hidalgo,13,20.269792,-98.942183,55.84,342126520,2017,,22014423
'08096330015,"Juárez Hidalgo, Tlahuiltepa.",9,Centro SCT Hidalgo,13,20.804464,-98.816754,34.22,242821293,2017,,25491942
'0809J2R0003,Ampliacion de Rompeolas del Puerto en 400.0 metros,9,"Administración Portuaria Integral de Ensenada, S.A. de C.V.",2,31.843801,-116.625471,12.29,593603327,2017,,97104542
'08096280003,Camino: Guachochi-Yoquivo,9,Centro SCT Chihuahua,8,26.819552,-107.082021,74.12,604081199,2017,Comunicaciones y Transportes,33488952
'08096280008,Nuevo Casas Grandes - Puerto Palomas,9,Centro SCT Chihuahua,8,30.88,-108.18,26.08,2062147281,2017,,101603432
'09096340017,Chimaltitán - Florencia.,9,Centro SCT Jalisco,14,21.78005556,-103.7799028,11.76,437915790,2017,Comunicaciones y Transportes,11644915
'09096360020,Las Letras-Casa Blanca,9,Centro SCT Michoacán,16,20.231478,-101.435499,84.57,87155555,2016,Comunicaciones y Transportes,4953346
'09096280009,Libramiento Sur de Ciudad Cuauhtémoc,9,Centro SCT Chihuahua,8,28.3807,-106.7553,56.22,750242442,2017,,58464714
'11096400015,Concepción Buenavista - San Antonio Abad - San Miguel Astatla,9,Centro SCT Oaxaca,20,17.881012,-97.405816,42.73,85108927,2017,,5132392
'11096460013,"Modernización de la Carretera Federal MEX 002 Janos - Agua Prieta, del km 78+000 al km 160+000",9,Centro SCT Sonora,26,31.3237,-108.7687,18.62,1139690158,2017,,191941180
'06056130001,Adquisición mediante arrendamiento financiero de un edificio para las oficinas de la Cancillería,5,Dirección General de Bienes Inmuebles y Recursos Materiales,9,19.4338,-99.1444,100,1863489579,2017,Gobierno,107139773
'06096280001,"Modernización de la Carretera Palomas-Parral, del Km. 92+000 al Km. al Km. 180+000.",9,Centro SCT Chihuahua,8,27.6378,-105.9749,93.58,955742377,2017,Comunicaciones y Transportes,63059707
'10096330006,C.E. Tecozautla-Tasquillo: El Salto-Caltimacan.,9,Centro SCT Hidalgo,13,20.526344,-99.5229,97.55,174101811,2016,Comunicaciones y Transportes,23645738
'10096440014,"Cd. Valles-Tampico, Tramo: Ent. Lib. Tamuín-Ent. Pánuco.",9,Centro SCT San Luis Potosí,35,0,0,72.22,2590240139,2017,Comunicaciones y Transportes,134061398
'10096330025,E.C. (Huautla - Chiliteco) - Metlatepec - Chapopote,9,Centro SCT Hidalgo,13,21.066408,-98.241761,52.09,67501641,2016,Comunicaciones y Transportes,10114687
'10096450008,Acceso Norte de Culiacán,9,Centro SCT Sinaloa,25,24.8335,-107.4324,68,584231653,2017,Comunicaciones y Transportes,0
'10096350045,Av. Nopaltepec (Viaducto Poniente Bicentenario),9,Centro SCT México,15,19.6563,-99.22345,39.7,356683138,2017,Comunicaciones y Transportes,0
'10096360018,Tafetan-Platanillo,9,Centro SCT Michoacán,16,19.414614,-100.906367,22.5,159367184,2016,Comunicaciones y Transportes,19112335
'0912NBG0002,Construcción y Equipamiento de la Unidad de Enseñanza.- 2014-2016,12,Hospital Infantil de México Federico Gómez,9,19.41036806,-99.15179788,97.6,34523983,2014,Salud,26166470
'0912NBV0008,"Construcción y equipamiento de la Nueva Torre de Hospitalización del INCan, 2010-2017.",12,Instituto Nacional de Cancerología,9,19.2933947,-99.1754206,97.3,2964335783,2017,Salud,197682754
'10132160001,Adquisición de aviones versión Transporte Militar y carga.,13,Dirección General de Servicios,34,0,0,100,2243500014,2017,Seguridad,97590872
'1012NCG0006,"Redistribución, Ampliación y Equipamiento de las Áreas Críticas y de Hospitalización del INCMNSZ 2010-2016.",12,Instituto Nacional de Ciencias Médicas y Nutrición Salvador Zubirán,9,19.2871869,-99.1705253,98.98,269470684,2016,Salud,10914113
'10096500022,Túxpan-Tamiahua.,9,Centro SCT Veracruz,30,20.968499,-97.398574,100,38600303,2016,Comunicaciones y Transportes,0
'10096270022,Triunfo de Madero - Pueblo Viejo,9,Centro SCT Chiapas,7,16.775628,-93.770761,100,181931337,2017,,0
'11096220003,Maneadero - La Bufadora,9,Centro SCT Baja California,2,31.728551,-116.577895,46.1,240760527,2017,,0
'10096310001,Valles Yuriria-Lagunilla Los Mogotes,9,Centro SCT Guanajuato,11,20.355467,-101.188211,89.75,61047866,2017,,105840
'10096360032,"Anillo Periférico Oriente, del municipio de La Piedad, Michoacán.",9,Centro SCT Michoacán,16,20.3652,-101.9821,100,306825078,2013,Comunicaciones y Transportes,25899336
'11096210005,Viñedos Rivier-San Marcos,9,Centro SCT Aguascalientes,1,21.9619,-102.29,97.2,673501534,2017,Comunicaciones y Transportes,112227277
'10096300008,Gómez Palacio - Gregorio García.,9,Centro SCT Durango,10,25.611989,-103.460532,75,259741913,2017,,20260834
'0816B000231,"Modernización del Riego del Valle de Cuatro Ciénegas, Coahuila.",16,Comisión Nacional del Agua,5,26.75,-101.8136,18.07,1465716355,2017,,0
'0916B000129,"Programa de Estudios Básicos, Proyectos y Diseños Ejecutivos para la Modernización de Infraestructura de Riego.",16,Comisión Nacional del Agua,35,0,0,72.28,88719778,2015,"Agricultura, Ganadería, Desarrollo Rural, Pesca y Alimentación",25965494
'08133110002,Creación de Centros de Desarrollo Infantil,13,Dirección General de Recursos Humanos,35,0,0,100,373094968,2016,Seguridad,35374986
'11096480002,"Matamoros-Nuevo Laredo (Corredor Fronterizo), Cd. Mier-Lím. Edos. NL",9,Centro SCT Tamaulipas,28,26.452444,-99.152694,99.48,390304170,2015,Comunicaciones y Transportes,24359304
'11096480005,Cd. Victoria - Lím. Edos. N.L.,9,Centro SCT Tamaulipas,28,23.774092,-99.137503,28.52,2018183223,2017,Comunicaciones y Transportes,119083108
'11096490014,Lázaro Cárdenas  - San José de la Laguna - E.C.(Xaloztoc - Toluca de Guadalupe),9,Centro SCT Tlaxcala,29,19.465756,-97.964516,100,53411514,2016,,0
'11096520003,Fresnillo-Valparaiso,9,Centro SCT Zacatecas,32,23.171522,-102.913042,32.99,1217040494,2017,Comunicaciones y Transportes,248597674
'11096500009,E.C. (Jilotepec - Acatlán) - Buenavista.,9,Centro SCT Veracruz,30,19.666508,-96.893347,100,36862210,2015,Comunicaciones y Transportes,60820
'11096420006,Deprimido en Av. Paseo de la República Km 12+300,9,Centro SCT Querétaro,22,20.6771,-100.4313,93.4,110812748,2013,Comunicaciones y Transportes,7425669
'11096460006,Libramiento Oriente Nogales,9,Centro SCT Sonora,26,31.2343,-110.9654,66.4,564656334,2016,Comunicaciones y Transportes,22039831
'11096310010,Cuarto Cinturón Vial de Irapuato,9,Centro SCT Guanajuato,11,20.7087,-101.3526,16.3,789632923,2017,Comunicaciones y Transportes,0
'11096370002,Libramiento Norponiente de Cuernavaca.,9,Centro SCT Morelos,17,18.9592,-99.2296,30,6583197492,2017,Comunicaciones y Transportes,39886523
'11096310022,Construcción de Puente en la Intersección Blvd. Adolfo López Mateos - Av. 2 de Abril.,9,Centro SCT Guanajuato,11,20.520028,-100.799944,100,392754897,2015,,23056428
'11096390002,Entronque Montemorelos.,9,Centro SCT Nuevo León,19,25.1907,-99.8849,98,121382176,2013,Comunicaciones y Transportes,2544975
'11096450002,E.C. Rosa Morada-Agua Pepito,9,Centro SCT Sinaloa,25,24.672571,-107.687075,98.29,50045984,2016,Comunicaciones y Transportes,10026195
'11096450004,E.C. México 15 - Colonia 20 de Noviembre,9,Centro SCT Sinaloa,25,25.476867,-108.162172,73.5,89764839,2016,Comunicaciones y Transportes,9987137
'11096310027,Aldama - Cañada de la Muerte - El Encino,9,Centro SCT Guanajuato,11,20.814229,-101.31315,42.7,34012058,2017,Comunicaciones y Transportes,89964
'10096480004,E.C. Tampico-Mante Km 62-Santa Juana,9,Centro SCT Tamaulipas,28,22.595881,-98.187347,91.18,186738742,2016,Comunicaciones y Transportes,9717929
'11071170002,IMPLEMENTACIÓN  DEL RÉGIMEN DE MODIFICACIÓN Y DURACIÓN DE PENAS EN EL FUERO DE GUERRA Y EL SISTEMA DE REINSERCIÓN EN LAS PRISIONES MILITARES,7,Dirección General de Ingenieros,35,0,0,100,732216188,2016,Seguridad,86612676
'12096500008,Perote - Rancho Nuevo.- El escobillo,9,Centro SCT Veracruz,30,19.542909,-97.237094,77.05,37608242,2016,,0
'12096340032,Mechoacanejo - El Rosario,9,Centro SCT Jalisco,14,21.53961944,-102.5978389,59.52,95505143,2017,Comunicaciones y Transportes,15907562
'1306G1H0006,Nuevo Sistema Central Bancario,6,"Banco Nacional del Ejército, Fuerza Aérea y Armada, S.N.C.",34,0,0,100,550959825,2017,Desarrollo económico,103400100
'0316B000058,"Construcción de infraestructura para la Zona de Riego de la Zona Citricola, Yuc.",16,Comisión Nacional del Agua,31,20.6666,-89.75,42.99,1071145295,2017,,2178469
'0321W3N0157,Programa de obras y servicios del CIP Nayarit.,21,Fondo Nacional de Fomento al Turismo,18,20.791626,-105.486327,37.69,4421802667,2017,,69953443
'09096340005,La Loma  E.C. (Zipoco  Los Reyes),9,Centro SCT Jalisco,14,19.461006,-102.706472,73.12,32205094,2016,,0
'07096320014,San Luis San Pedro - Fresnos de Puerto Rico - Ajuchitlán,9,Centro SCT Guerrero,12,17.620835,-100.754096,1.68,184560367,2017,,13294
'07096400017,Camino: San Sebastián Frontera- km. 57.5 E.C. Tehuacan - Huajuapan.,9,Centro SCT Oaxaca,20,18.211065,-97.648507,100,33383596,2016,,0
'11096490001,Cuauhtenco - Malintzi y Ramal a La Luz,9,Centro SCT Tlaxcala,29,19.309577,-98.112871,64.29,60034134,2016,,0
'0950GYR0018,"Construcción del Hospital General Regional (HGR) de 216 camas en la localidad de Tlajomulco deZúñiga, en el Estado de Jalisco.",50,Instituto Mexicano del Seguro Social,14,20.507361,-103.398783,0,1295093004,2017,,0
'1151GYN0008,Rehabilitación y Ampliación de la Infraestructura de Hospitales Generales.,51,Instituto de Seguridad y Servicios Sociales de los Trabajadores del Estado,35,0,0,99.74,1639113265,2017,Salud,391444514
'10096400006,Acatlán de Pérez Figueroa - La Capilla,9,Centro SCT Oaxaca,20,18.5375,-96.6054,77.3,84820385,2017,Comunicaciones y Transportes,9353451
'1009A000001,Laboratorio de Durabilidad de Estructuras de Concreto. LabDurEs-IMT,9,Instituto Mexicano del Transporte,22,20.504761,-100.214988,60.2,95955163,2016,Desarrollo económico,0
'0950GYR0014,"Construcción de Hospital General Regional (HGR) de 236 camas en la localidad de Metepec, en el Estado de México Poniente",50,Instituto Mexicano del Seguro Social,15,19.2467238,-99.5766238,0,1446832998,2017,,1300592
'11096340010,Cuquío-Tepatitlán.,9,Centro SCT Jalisco,14,20.958441,-102.967279,46.68,120826882,2016,Comunicaciones y Transportes,12171255
'12096270013,Ángel Albino Corzo-Ignacio Zaragoza-Monte Alegre,9,Centro SCT Chiapas,7,17.1248,-93.279641,39.29,132581781,2017,,0
'12096320016,El Terrero - La Ladrillera,9,Centro SCT Guerrero,12,16.562756,-98.432672,32.61,138500608,2016,Comunicaciones y Transportes,11290595
'11096360024,Libramiento Peribán.,9,Centro SCT Michoacán,16,19.520784,-102.410685,0,9478546,2016,Comunicaciones y Transportes,0
'11096370005,Carretera Tepalcingo-Axochiapan,9,Centro SCT Morelos,17,18.598301,-98.838618,39.8,167686103,2017,,11918972
'1151GYN0011,Rehabilitación y Ampliación de la Infraestructura de Clínicas Hospitales y Clínicas de Especialidades.,51,Instituto de Seguridad y Servicios Sociales de los Trabajadores del Estado,35,0,0,66.27,1385174240,2017,Salud,146952865
'12096480001,Matamoros-Puerto Matamoros,9,Centro SCT Tamaulipas,28,25.71354,-97.572776,76.61,509437381,2017,Comunicaciones y Transportes,24162762
'0950GYR0005,"Construcción de Hospital General de Zona (HGZ) de 180 camas en la localidad de Tapachula, en el estado de Chiapas.",50,Instituto Mexicano del Seguro Social,7,14.911992,-92.276181,0,1388927336,2017,Asociación Público-Privada,0
'13096400009,Oaxaca Puerto Escondido-Huatulco tramo la Y Barranca  Larga-Ventanilla y Puerto Escondido-Huatulco y Ramal San Francisco  Coatlan del Km. 0+000 al Km. 3+000,9,Centro SCT Oaxaca,20,16.20035,-96.784044,46.57,16468515,2017,,2500707
'13096320010,Teloloapan Boulevard.,9,Centro SCT Guerrero,12,18.338275,-99.819972,29.98,163208943,2017,,0
'13096260007,Libramiento de Comalá.,9,Centro SCT Colima,6,19.290391,-103.747951,100,193994418,2017,,11579533
'12096310020,Lagunilla de Mogotes - Cerro Blanco,9,Centro SCT Guanajuato,11,20.295767,-101.260914,,36194136,2017,Comunicaciones y Transportes,
'12096360044,San Antonio de Viña - Loma Ceñida,9,Centro SCT Michoacán,16,19.285261,-101.468714,29.42,67798634,2016,Comunicaciones y Transportes,4798759
'13092100004,Ampliar el Paseo de la República a la desviación a San Miguel de AllendeTramo del Km. 15+000 al Km. 28+000,9,Centro SCT Querétaro,22,20.7011,-100.43,59.86,971152856,2017,Comunicaciones y Transportes,257330277
'09096340011,Tizapan-San José de Gracia,9,Centro SCT Jalisco,14,20.150744,-103.04119,99.64,181789329,2016,Comunicaciones y Transportes,6901621
'13096450023,Rehabilitación Escuinapa-Teacapan.,9,Centro SCT Sinaloa,25,22.822108,-105.786114,0,173834314,2017,,0
'13096440012,Modernización y ampliación del camino Estación Tamuín - Santa Martha.,9,Centro SCT San Luis Potosí,24,22.079108,-98.812122,45.59,215119967,2017,,10820906
'12096320012,Mazatlán - El Salado y Ramal a Lagunilla.,9,Centro SCT Guerrero,12,17.431931,-99.463344,68.96,51578150,2017,Comunicaciones y Transportes,12337372
'13096450002,Villa Unión  La Amapa,9,Centro SCT Sinaloa,25,23.187228,-106.215061,100,64044221,2016,,0
'12095100015,"Construcción de protección marginal y muelles de pesca ribereña y paseos ecoturísticos, en Barra de San José, Mazatán, Tapachula, Chiapas.",9,Dirección General de Puertos,7,14.923111,-92.6274,100,13151940,2016,,0
'13096450019,EC México 15-Mocorito-El Valle,9,Centro SCT Sinaloa,25,25.517613,-107.907464,19.02,37193088,2017,,3133115
'13096440018,Construcción del Libramiento Venado.,9,Centro SCT San Luis Potosí,24,22.926514,-101.111592,0,20585642,2016,,0
'13096440023,Presa Verde - Gallos Blancos.,9,Centro SCT San Luis Potosí,24,23.975379,-100.700568,62.66,25123768,2017,Comunicaciones y Transportes,0
'13096440026,"E.C.F. México No. 57- El Jaralito, Tramo Texas- El Jaralito.",9,Centro SCT San Luis Potosí,24,21.946196,-100.74663,100,18457155,2016,,0
'13096350031,Carretera a la Lagunita Cantashi a la Primaria.,9,Centro SCT México,15,19.86904,-99.867257,100,16056023,2016,,0
'12096350002,La Concepción  Llano de los Negros,9,Centro SCT México,15,19.380238,-99.444249,,24840654,2017,Comunicaciones y Transportes,
'1218T0O0007,REHABILITACION DE INMUEBLES EN IMP SEDE EN DISTRITO FEDERAL,18,Instituto Mexicano del Petróleo,9,19.4899406,-99.14542014,98.1,809174838,2017,Desarrollo económico,0
'10096400024,E.C (Santiago Juxtlahuaca  Putla de Guerrero)  Tramo: Santiago Naranjas  Lázaro Cárdenas  Santa Maria Yucunicoco. Del Km. 0+000 al Km. 25+000,9,Centro SCT Oaxaca,20,17.26826,-98.005674,29.28,152435531,2017,Comunicaciones y Transportes,3703983
'09096400030,"Santiago Jamiltepec  Santiago Ixtayutla, Tramo: Santiago Jamiltepec  San José de las Flores (Km. 0+000 al Km. 22+000).",9,Centro SCT Oaxaca,20,16.285745,-97.819683,87.41,84547326,2017,Comunicaciones y Transportes,7097743
'10096330005,C.E. Ixtlahuaco-Calnali,9,Centro SCT Hidalgo,13,20.884294,-98.703089,100,123759755,2014,Comunicaciones y Transportes,28899
'12096440004,Valle de San Juan - Rincón del Refugio.,9,Centro SCT San Luis Potosí,24,22.397927,-100.575626,100,97190497,2016,Comunicaciones y Transportes,4229062
'12096460001,Tesía - Camoa,9,Centro SCT Sonora,26,27.164739,-109.368003,88.06,91285890,2016,,0
'05096390016,Zaragoza - Tepozanes - El Refugio.,9,Centro SCT Nuevo León,19,23.970287,-99.742092,0,118333782,2017,,0
'11096450009,El Fuerte-Álamos,9,Centro SCT Sinaloa,25,26.4211,-108.6079,0,1837779641,2017,,0
'12096340021,Zapotán_E.C.(Villa Purificación-Chamela),9,Centro SCT Jalisco,14,19.760142,-104.919131,58.92,116009063,2017,,12288866
'13096320001,Ayutla - El Cortijo - El Rincón.,9,Centro SCT Guerrero,12,16.98905,-99.149644,51.58,69167761,2016,Comunicaciones y Transportes,13007050
'1116B000284,"Construcción del Proyecto de Temporal Tecnificado Jesús Diego, Chiapas.",16,Comisión Nacional del Agua,7,15.58,-93.2,69.04,251810771,2015,"Agricultura, Ganadería, Desarrollo Rural, Pesca y Alimentación",44109576
'1216B000142,"Conservación y mantenimiento de tuneles del Valle de México, Estado de México",16,Comisión Nacional del Agua,15,0,0,43.08,18630567,2014,Desarrollo Social,6489462
'133891A0004,Programa para llevar a cabo el Fortalecimiento de la Infraestructura para Desarrollo de Proyectos de Investigación y Desarrollo Tecnológico.,38,"Corporación Mexicana de Investigación en Materiales, S.A. de C.V.",5,25.448319,-100.969267,52,53122341,2017,Desarrollo económico,11848056
'13096340016,E.C. (Atotonilco el Alto-La Barca)-El Maguey.,9,Centro SCT Jalisco,14,20.529408,-102.525256,100,27792236,2016,Comunicaciones y Transportes,0
'14096240001,Entronque Dzitbalché,9,Centro SCT Campeche,4,20.3012,-90.0634,98,97025040,2015,Comunicaciones y Transportes,2598901
'12096330002,Arco Poniente: Progreso  Mandho  Santa Ana.,9,Centro SCT Hidalgo,13,20.479789,-99.223753,38.26,42086205,2016,Comunicaciones y Transportes,9911961
'13096340001,Nahuapa - E.C.F. Méx. 200.,9,Centro SCT Jalisco,14,19.921139,-105.318328,100,11310668,2016,Comunicaciones y Transportes,0
'13096310026,La Ordeña -  Cofradía de Peralta.,9,Centro SCT Guanajuato,11,20.490778,-101.409724,100,13290145,2016,,142314
'12096490007,Xaltipa - La Trinidad,9,Centro SCT Tlaxcala,29,19.166028,-98.204247,100,8556764,2016,,0
'12096520041,Vialidad Sedena Acceso a Guadalupe.,9,Centro SCT Zacatecas,32,22.75069,-102.497246,99.69,121336004,2017,,8998155
'13096350049,Distribuidor Vial entre Av. De Las Torres y Av. Aéropuerto.,9,Centro SCT México,15,19.2793,-99.5536,100,661054549,2016,Comunicaciones y Transportes,2219469
'05096310003,"San Luis de la Paz- Rió Verde, Tramo: Chupadero-Mesas de Jesús-el Realito",9,Centro SCT Guanajuato,11,21.460445,-100.502879,0,410214682,2017,,0
'13095100002,Construcción de una nueva terminal marítima en Punta Sam,9,Dirección General de Puertos,23,21.2334,-86.8005,41.56,49431124,2016,,15571
'13096310025,Celaya - Juventino Rosas.,9,Centro SCT Guanajuato,11,20.583811,-100.872083,100,112825963,2015,Comunicaciones y Transportes,280016
'12096390027,Nodo Vial Sendero y Laredo  Distribuidor Sendero-Barragán,9,Centro SCT Nuevo León,19,25.7644,-100.3055,91,673951957,2017,Comunicaciones y Transportes,58671433
'1216B000211,"Programa de estudios básicos, proyectos y diseños ejecutivos de presas de almacenamiento y derivadoras, 2013.",16,Comisión Nacional del Agua,35,0,0,15.85,20715904,2016,,0
'1316B000010,"Levantamientos Topobatimétricos de Presas en los Estados de  Coahuila, Jalisco, Michoacán, Oaxaca, Tamaulipas y Veracruz.",16,Comisión Nacional del Agua,35,0,0,16.4,128232552,2016,,0
'1312NEF0002,Remodelación y Equipamiento del Almacén Central de la Planta Cuautitlán y remodelación de los Almacenes de los Institutos Nacionales de Higiene y Virología.-2014-2018,12,"Laboratorios de Biológicos y Reactivos de México, S.A. de C.V.",35,0,0,0,51587850,2017,,0
'13132110005,Construcción de Embarcaciones Interceptoras,13,Dirección General de Construcciones Navales,34,0,0,12.5,770166864,2017,,7519289
'13132160003,Construcción y equipamiento de instalaciones para unidades de inteligencia.,13,Dirección General de Servicios,34,0,0,71.43,467403795,2017,,86500000
'1350GYR0005,Proyecto de Ampliación de Almacenes Generales,50,Instituto Mexicano del Seguro Social,35,0,0,58,131928597,2017,Salud,217469
'13132160016,Adquisición de Aeronaves versión Búsqueda y Rescate,13,Dirección General de Servicios,9,0,0,28,3232970957,2017,Seguridad,645976568
'14095100011,"Conservación de Infraestructura Marítimo-Portuaria, Dragado de Mantenimiento y Obras Complementarias en la Región Pacifico Sur",9,Dirección General de Puertos,35,0,0,19.79,39669109,2016,,2012543
'14096320025,Modernización Del Camino Petatlán-Piedra De Veliano-El Camalote.,9,Centro SCT Guerrero,12,17.551032,-101.290758,29.99,223689690,2017,Comunicaciones y Transportes,16882426
'14096340001,Boulevard de la Carretera Federal No. 23 Guadalajara - Zacatecas Tramo 0+000 entronque Tesistán al 15+000.,9,Centro SCT Jalisco,14,20.781669,-103.46295,5,330837050,2017,Comunicaciones y Transportes,393326
'1450GYR0040,"Construcción de la Unidad de Medicina Familiar (U.M.F.) Nueva (Sustitución) en el Municipio de Atotonilco de Tula, Hidalgo.",50,Instituto Mexicano del Seguro Social,13,20.008194,-99.221333,95,71550740,2015,Salud,10331500
'14096300004,Construcción de Camino a Grutas del Rosario.,9,Centro SCT Durango,10,25.734827,-103.874405,40.06,50641365,2017,,14808818
'14096370003,"E.C.F. ( (Cuernavaca Acapulco) - Autopista Siglo XXI) - Tr. Colonia la Unión - La Lagunilla , Delegación Mariano",9,Centro SCT Morelos,17,18.941507,-99.265414,54.69,47955839,2017,,458538
'14096380010,Modernizacion del Camino Tequilita - Cuastecomate.,9,Centro SCT Nayarit,18,21.085164,-104.797275,100,36830083,2017,,11726720
'14096440013,Chilares - La Maroma,9,Centro SCT San Luis Potosí,24,23.517159,-100.742594,39.06,213137056,2017,,18076329
'1450GYR0014,"Sustitución de la Unidad de Medicina Familiar (U.M.F.) No. 5 en el Municipio de Tepic, Nayarit.",50,Instituto Mexicano del Seguro Social,18,21.515672,-104.910564,0,73828617,2017,Salud,429318
'07096320022,Camino: Sata Ana-Ayahualulco.,9,Centro SCT Guerrero,12,17.566589,-99.218909,100,31906741,2016,Comunicaciones y Transportes,9995570
'14096500026,Xico - Tonalaco.,9,Centro SCT Veracruz,30,19.423033,-97.019126,30.1,134213815,2017,,0
'14096220002,Nodo Pemex,9,Centro SCT Baja California,2,32.373271,-117.059541,60.9,149302509,2016,Comunicaciones y Transportes,69228588
'13096350044,Circuito Tablón Chico.,9,Centro SCT México,15,19.953116,-99.169115,100,17516948,2016,,0
'1506GSA0002,ADQUISICION DE VEHICULOS DE TRANSPORTE PARA LA SUPERVISION DE LAS OPERACIONES EN CAMPO,6,"Agroasemex, S.A.",22,0,0,100,14067046,2016,"Agricultura, Ganadería, Desarrollo Rural, Pesca y Alimentación",10063627
'14096360012,E.C. (Huetamo - Churumuco) - Turitzio - Characuaro.,9,Centro SCT Michoacán,16,18.500845,-100.966892,100,29376016,2016,Comunicaciones y Transportes,9902834
'14096360032,Libramiento Zinapecuaro.,9,Centro SCT Michoacán,16,19.882967,-100.80745,15.27,42181484,2017,,195739
'1409C000001,Modernización de Sistemas y Equipos para Control de Tránsito Aéreo,9,Servicios a la Navegación en el Espacio Aéreo Mexicano,35,0,0,50.22,500339243,2017,Comunicaciones y Transportes,107661304
'14096430001,Lázaro Cárdenas - Chacchoben.,9,Centro SCT Quintana Roo,23,18.977275,-88.213528,99.74,43159989,2016,Comunicaciones y Transportes,17276087
'14096320033,Modernización Del Camino Olinalá-Temalacatzingo-Zontecomatlán-Huehuetecatzingo-Totolapa-Huamuxtitlán.,9,Centro SCT Guerrero,12,17.77782,-98.73296,7.91,283127237,2017,Comunicaciones y Transportes,11461171
'1504I000011,Fortalecimiento de equipo para recopilación de información en campo,4,Centro de Investigación y Seguridad Nacional,35,0,0,29,150216684,2016,Seguridad,59784269
'14096270035,Puente Vehicular Camino A Sta. Martha.,9,Centro SCT Chiapas,7,16.725392,-92.649286,100,11153163,2016,,1146733
'1450GYR0039,"Construcción de la Unidad de Medicina Familiar (U.M.F.) Nueva (Sustitución) en el Municipio de Cajeme, Sonora.",50,Instituto Mexicano del Seguro Social,26,27.446606,-109.923656,24,132230359,2017,Salud,9999997
'14096350036,Caxboncuac Paraje-El Salto (Chapa De Mota).,9,Centro SCT México,15,19.783477,-99.613349,42.11,11402832,2016,,0
'1416B000084,Conservación Normal de Distritos de Riego en el Organismo de Cuenca Pacífico Norte.,16,Comisión Nacional del Agua,35,0,0,42.6,160359697,2017,"Agricultura, Ganadería, Desarrollo Rural, Pesca y Alimentación",27910205
'11132160011,Construcción de un centro oncológico anexo al Hospital General Naval de Alta Especialidad en el D.F.,13,Dirección General de Servicios,9,19.35,-99.161667,65,448886216,2017,Seguridad,64320708
'1416B000025,"PROYECTO DE RIEGO CON POZOS PUERTO MEXICO.  MUNICIPIO DE SAN AGUSTIN TLAXIACA, HIDALGO",16,Comisión Nacional del Agua,13,20.1,-98.93,38.7,44771688,2017,,9060373
'11096330004,Valle Azul: San Andrés Orizabita -Espino - Cerritos - Nequeteje.,9,Centro SCT Hidalgo,13,20.573511,-99.177986,49.47,43751986,2017,,9979004
'1512NHK0001,Programa de Equipamiento del SNDIF 2016,12,Sistema Nacional para el Desarrollo Integral de la Familia,9,0,0,59.27,20537757,2016,Desarrollo Social,11780820
'08132160016,Construcción de instalaciones para cinco Batallones de Infanteria de Marina.,13,Dirección General de Servicios,34,0,0,0,1546998926,2016,,0
'1216B000134,"Rehabilitación y Modernización del Distrito de Riego 038 Río Mayo y Zona de Riego Fuerte Mayo, Estado de Sonora.",16,Comisión Nacional del Agua,26,0,0,18.27,30398353,2015,"Agricultura, Ganadería, Desarrollo Rural, Pesca y Alimentación",0
'14096390001,Apodaca - Cd. Juárez,9,Centro SCT Nuevo León,19,25.736112,-100.153745,19.76,369009404,2017,,7828542
'1409J3E0004,Estudios de Preinversión 2015 - 2017,9,"Administración Portuaria Integral de Veracruz, S.A. de C.V.",30,0,0,58.94,43000401,2017,Comunicaciones y Transportes,12507363
'14096520008,E.C. Pinos / Ojuelos - El Sitio - Ojo De Agua De La Palma.,9,Centro SCT Zacatecas,32,21.970083,-101.590011,55.4,52892144,2017,Comunicaciones y Transportes,159085
'14096400012,"Modernización y Ampliación del camino E.C. Km. 179+000 (Oaxaca-Santo Domingo Tehuantepec)-Santa María Ecatepec-San Juan Acaltepec, Tramo Del Km. 12+000 Al Km. 44+000.",9,Centro SCT Oaxaca,20,16.350888,-95.825556,10.6,204516288,2017,,6008953
'1427A000003,"Programa de mantenimiento y remodelación del inmueble ubicado en la calle Salvador Novo No.8, Colonia El Cármen, Coyoacán, D.F.",27,Instituto de Administración y Avalúos de Bienes Nacionales,9,0,0,92.95,11394531,2017,,8090000
'16071120006,ADQUISICIÓN DE UNA MÁQUINA ESLABONADORA MOD. PC-161 Y ADQUISICIÓN DE ESLABONES M13.,7,Dirección General de Industria Militar,35,0,0,0,16452399,2017,,0
'14212100008,ESTUDIOS DE PREFACTIBILIDAD DE RECUPERACION DE PLAYAS / 08 PROGRESO,21,Dirección General de Desarrollo Regional y Fomento Turístico,31,0,0,0,19467393,2017,,0
'11096330003,Bicentenario Sionista: Villa de La Paz - San Andrés Orizabita  Espíritu - Quixpedhe,9,Centro SCT Hidalgo,13,20.591019,-99.207919,75.7,91491746,2016,Comunicaciones y Transportes,12595578
'163890Q0001,Fortalecimiento a las capacidades de innovación y transferencia de la Unidad de Ciencias del Agua,38,"Centro de Investigación Científica de Yucatán, A.C.",23,21.175,-86.821,64.2,10934044,2017,,6263835
'1316B000138,"Construcción de la presa de almacenamiento y zona de riego El Sandoval, municipio de Apatzingán, Mich.",16,Comisión Nacional del Agua,16,18.85,-102.53,0,382251797,2017,,0
'14132160037,Adquisición de activos para operaciones de vigilancia,13,Dirección General de Servicios,9,0,0,95,2377164398,2017,Seguridad,144761287
'14165120001,"Adquisición, instalación y puesta en marcha de cuatro elevadores para el edificio Sede de la Secretaría de Medio Ambiente y Recursos Naturales.",16,"Dirección General de Recursos Materiales, Inmuebles y Servicios",9,0,0,0,9917277,2016,,0
'1416B000002,"Construcción del Canal Centenario, Nayarit.",16,Comisión Nacional del Agua,18,21.78016667,-104.887,10.87,7574166355,2017,"Agricultura, Ganadería, Desarrollo Rural, Pesca y Alimentación",210699920
'1316B000022,"Batería de unidades de bombeo para el aprovechamiento de la Cuenca Baja del Rio San Nicolás, Municipio de Tomatlán,  Jal",16,Comisión Nacional del Agua,14,19.9342,-105.2355,0,613149585,2017,,0
'14178120007,Programa de mantenimiento plurianual para el sistema de cimentación de las oficinas centrales de la Procuraduría General de la República.,17,Dirección General de Recursos Materiales y Servicios Generales,9,0,0,72,63586442,2017,Seguridad,1629109
'14212100009,ESTUDIOS DE PREFACTIBILIDAD DE RECUPERACION DE PLAYAS / 10 MAZATLAN,21,Dirección General de Desarrollo Regional y Fomento Turístico,25,0,0,21.51,24691390,2017,,0
'1450GYR0051,"Adquisición de Unidades de Radioterapia Intracavitaria con Iridio 192 y UnidadesRadiológicas, Fluoroscópicas Transportables tipo Arco en C.",50,Instituto Mexicano del Seguro Social,35,0,0,99.5,84442711,2015,Salud,7659363
'1506HAN0002,"Programa general de mantenimiento para los inmuebles propios en las Coordinaciones Regionales Norte, Noreste, Centro-Occidente, Sur, Sursureste, edificio de Agrarismo y Almacén",6,"Financiera Nacional de Desarrollo Agropecuario, Rural, Forestal y Pesquero",35,0,0,100,26006234,2016,"Agricultura, Ganadería, Desarrollo Rural, Pesca y Alimentación",11366470
'1506HKA0002,"Construcción del almacén, oficinas y patio de maniobras para la Delegación Regional Noreste del SAE.",6,Servicio de Administración y Enajenación de Bienes,19,25.80208912,-100.2951765,24,83684448,2016,Gobierno,41837395
'1507HXA0028,"Mantenimiento y Rehabilitación de la U.H.M. Martínez de la Torre I, Ver.",7,Instituto de Seguridad Social para las Fuerzas Armadas Mexicanas,30,0,0,99.99,10270628,2016,Desarrollo Social,9616954
'1507HXA0053,"Construcción de una planta de tratamiento de aguas residuales para las UU.HH.MM. Guerrero Negro I, II, III y IV, B.C.S.",7,Instituto de Seguridad Social para las Fuerzas Armadas Mexicanas,3,0,0,99.99,6966982,2016,Desarrollo Social,6530301
'1506HBW0002,Rehabilitación de sanitarios CDT SLL,6,"Fondo de Garantía y Fomento para la Agricultura, Ganadería y Avicultura",16,0,0,1,154971,2016,"Agricultura, Ganadería, Desarrollo Rural, Pesca y Alimentación",141810
'1416B000086,Conservación Normal de Distritos de Riego en el Organismo de Cuenca Golfo Norte.,16,Comisión Nacional del Agua,35,0,0,56.18,84726883,2017,"Agricultura, Ganadería, Desarrollo Rural, Pesca y Alimentación",25913108
'1516B000105,Estudios de preinversión para el diagnóstico y propuesta de solución de la problemática pluvial de la Zona Metropolitana de Guadalajara.,16,Comisión Nacional del Agua,14,0,0,34.61,82651307,2016,Desarrollo Social,27741778
'1510LAU0012,Generación de información geofísica del territorio nacional,10,Servicio Geológico Mexicano,35,0,0,74.1,217919914,2017,Desarrollo económico,56907441
'1218T4M0031,Mantenimiento estratégico GAR Golfo,52,Pemex Logística,35,0,0,29.84,816539353,2017,Energía,19643865
'0718T4M0005,"Construcción de muelle en la residencia de operación portuaria La Paz, B. C. S.",52,Pemex Logística,3,24.220804,-110.310622,48.57,390069730,2017,,43075253
'1018T4M0018,Modernizacion y adecuación de los sistemas instrumentados de seguridad y de control básico de las estaciones de bombeo rebombeo y recibo de la Subgerencia de Transporte por Ducto Norte.,52,Pemex Logística,35,0,0,40.8,1321089283,2017,Energía,109988013
'0818T4M0043,Evaluación y Rehabilitación de la Integridad Mecanica de los Poliductos y Combustoleoductos en la Zona Norte y Pacífico,52,Pemex Logística,35,0,0,48.79,1466762285,2017,Energía,251081792
'0918T4N0006,Actualización tecnológica de los sistemas de control de las terminales de gas licuado,52,Pemex Logística,35,0,0,86.64,683478109,2017,,37445711
'1218T4I0009,Adquisición e instalación de extractores de aire  requeridos en el CENDI Verónica,52,Pemex Corporativo,9,0,0,0,818338,2016,Energía,0
'1507HXA0045,Estudios de mecánica de suelos para la construcción de unidades habitacionales navales,7,Instituto de Seguridad Social para las Fuerzas Armadas Mexicanas,35,0,0,99.99,1084798,2016,Desarrollo Social,595115
'1516RJE0003,Equipo de laboratorio para proyectos contratados.,16,Instituto Mexicano de Tecnología del Agua,17,0,0,0,19372124,2016,Desarrollo económico,0
'1516B000045,Conservación y Rehabilitación de Áreas de Temporal en el estado de Veracruz de Ignacio de la Llave,16,Comisión Nacional del Agua,30,0,0,42.99,37602668,2016,"Agricultura, Ganadería, Desarrollo Rural, Pesca y Alimentación",15949749
'1316B000043,"Estudio del diagnóstico para el Manejo Integral de las subcuencas Tuxpan, El Bosque, Ixtapan del Oro, Valle de Bravo, Colorines-Chilesdo y Villa Victoria pertenecientes al sistema Cutzamala.",16,Comisión Nacional del Agua,35,0,0,50.41,71624777,2017,,5235000
'1516B000051,Conservación y Rehabilitación de Áreas de Temporal en el estado de Quintana Roo.,16,Comisión Nacional del Agua,23,0,0,94.7,7353228,2016,"Agricultura, Ganadería, Desarrollo Rural, Pesca y Alimentación",6803828
'15092100004,Liberación del derecho de vía 2016.,9,Dirección General de Carreteras,35,0,0,0,2547307665,2016,Comunicaciones y Transportes,33363830
'15092110005,Programa de Reconstrucción de Puentes,9,Dirección General de Conservación de Carreteras,35,0,0,99.98,905832495,2016,Comunicaciones y Transportes,821976033
'1510K2N0006,Adquisición de Equipo y bienes especializados para Mantenimiento 2016,10,"Exportadora de Sal, S.A. de C.V.",35,0,0,96.37,22729109,2016,Desarrollo económico,15774633
'1510K2N0007,Adquisición de Equipo y bienes especializados 2016: 2 Cajas Dart y 1 Dolly,10,"Exportadora de Sal, S.A. de C.V.",3,0,0,100,57464420,2016,Desarrollo económico,55607315
'15092100002,Programa de Estudios y Proyectos de Caminos Rurales y Alimentadores 2016.,9,Dirección General de Carreteras,35,0,0,99.99,516570668,2016,Comunicaciones y Transportes,441738002
'1516B000067,Mantenimiento y rehabilitación del Sistema Acueducto Uxpanapa La Cangrejera.,16,Comisión Nacional del Agua,30,0,0,37.48,159104682,2016,Desarrollo Social,58181125
'1511A3Q0015,Programa de Adquisiciones de Bienes no Asociados a la Obra Pública 2016 para Centros e Institutos de Investigación Científica y Tecnológica (Equipo de Cómputo). UNAM.,11,Universidad Nacional Autónoma de México,35,0,0,100,52542215,2016,Desarrollo económico,50856754
'1507HXA0049,Programa de adquisición de equipos para el desarrollo operacional  ISSFAM 2016,7,Instituto de Seguridad Social para las Fuerzas Armadas Mexicanas,9,0,0,90,22632561,2016,Desarrollo Social,21544415
'1507HXA0050,"Construcción de la U.H.M. Cd. Victoria, Tamps.",7,Instituto de Seguridad Social para las Fuerzas Armadas Mexicanas,28,23.756508,-99.183765,99.99,51403774,2016,Desarrollo Social,49057468
'1218T4M0011,Mantenimiento de la capacidad de producción de la refinería de Tula (2013-2017),52,Pemex Transformación Industrial,13,0,0,58.12,9384072139,2017,Energía,743067927
'1318T4M0023,Adecuación de los sistemas de vacío de las plantas Preparadoras de Carga No. 2 y 3 de la Refinería de Minatitlán,52,Pemex Transformación Industrial,30,17.980856,-94.529114,11.61,140792203,2017,Energía,2687065
'1118T4N0006,"Mantenimiento integral de los sistemas de ductos para etano, petroquímicos básicos y petroquímicos secundarios",52,Pemex Logística,35,0,0,48.53,786286793,2017,Energía,156482653
'1218T4M0014,Mantenimiento estratégico GAR Pacífico,52,Pemex Logística,35,0,0,29.59,625832216,2017,Energía,2896903
'1450GYR0033,Programa de sustitución de bancas tandem para unidades médicas de los tres niveles de atención médica 2016.,50,Instituto Mexicano del Seguro Social,35,0,0,40,48205678,2016,Salud,18349271
'1218T4I0019,Evolución Estratégica de la Red y Servicios de Telecomunicaciones,52,Pemex Corporativo,35,0,0,51.54,2932553103,2017,Energía,387125045
'1520VSS0008,Ampliación y remodelación de almacenes,20,"Diconsa, S.A. de C.V.",35,0,0,100,52942162,2016,Desarrollo Social,37735533
'1218T4N0001,Acondicionamiento de instalaciones en el CPG  Cactus para suministro de etano.,52,Pemex Transformación Industrial,7,17.896681,-93.193353,94.84,751776543,2017,Energía,20674961
'018 01 016,Integral Jujo-Tecominoacán,52,Pemex Exploración y Producción,35,0,0,67.4,101826025280,2017,Energía,1814333611
'1318T4M0047,Adquisición de equipo laboratorio la GAR Centro,52,Pemex Logística,35,0,0,66,57129802,2017,,0
'15096520003,El Refugio de Ábrego - San Marcos - San Pedro de Ábrego.,9,Centro SCT Zacatecas,32,23.172838,-103.293278,37.87,19182335,2017,Comunicaciones y Transportes,6736431
'1309J3E0002,Reconstrucción de la Barda de Seguridad Norte del Recinto Portuario,9,"Administración Portuaria Integral de Veracruz, S.A. de C.V.",30,19.2147166,-96.16492222,76.23,39669107,2016,Comunicaciones y Transportes,2370491
'14096500003,"Ciénega - Chilapa, incluye ramal a Rancho Nuevo.",9,Centro SCT Veracruz,30,18.990056,-97.1821,34.1,76693608,2016,Comunicaciones y Transportes,9929064
'1318T4N0013,"Reparación de Planta Endulzadora de Gas No. 1, del Complejo Procesador de Gas Ciudad Pemex",52,Pemex Transformación Industrial,27,0,0,53.23,102941923,2017,Energía,7184357
'15096520012,Colonia Progreso-Nicolas Bravo,9,Centro SCT Zacatecas,32,23.815269,-103.333852,55.56,31970559,2017,Comunicaciones y Transportes,3998813
'1510K2N0009,Adquisición de Vehículos Especializados para Minería,10,"Exportadora de Sal, S.A. de C.V.",3,0,0,100,18596544,2016,Desarrollo económico,17114720
'1318T4L0018,Proyecto Rehabilitación del Centro de Adiestramiento CASES RMNE,52,Pemex Exploración y Producción,4,0,0,89.22,61063022,2017,,11067758
'1218T4L0022,Proyecto Integral Cuenca de Macuspana,52,Pemex Exploración y Producción,35,0,0,69.04,7414805078,2017,Energía,604752091
'1318T4L0011,Adquisición de nueve equipos de perforación terrestres,52,Pemex Perforación y Servicios,35,0,0,22.46,3116391564,2017,Energía,257353866
'15092140001,Programa de Liberación del Derecho de Vía para Autopistas a realizarse mediante Concesión o Asociación Público-Privada 2016,9,Dirección General de Desarrollo Carretero,35,0,0,99.99,2412711493,2016,Comunicaciones y Transportes,117141198
'1318T4N0021,"Mantenimiento Integral  de las Plantas Endulzadora de Gas, Criogénica, Recuperadora de Azufre y Servicios Principales.",52,Pemex Transformación Industrial,28,0,0,91.46,152154594,2017,Energía,6721122
'1607HXA0035,"Construcción de la U.H.M. Santa Lucía III, Edo. de Méx.",7,Instituto de Seguridad Social para las Fuerzas Armadas Mexicanas,15,19.754781,-98.97969719,,72057538,2017,Desarrollo Social,
'1318T4O0004,Mantenimiento de la Planta de Estireno Etilbenceno del Complejo Petroquímico Cangrejera,52,Pemex Transformación Industrial,30,0,0,25.98,966199190,2017,Energía,1851489
'1607HXA0022,"Mantenimiento y Rehabilitación de la U.H.M. Palomas, Chih.",7,Instituto de Seguridad Social para las Fuerzas Armadas Mexicanas,8,0,0,,4999505,2017,Desarrollo Social,
'1607HXA0023,"Mantenimiento y Rehabilitación de la U.H.M. Escobedo, N.L.",7,Instituto de Seguridad Social para las Fuerzas Armadas Mexicanas,19,0,0,,1100454,2017,Desarrollo Social,
'1607HXA0024,"Mantenimiento y Rehabilitación de la U.H.M. Mexicali II, B.C.",7,Instituto de Seguridad Social para las Fuerzas Armadas Mexicanas,2,0,0,,1176601,2017,Desarrollo Social,
'11096270040,"Nuevo Huixtán - Nuevo Momón, Tr: Bélgica - Nuevo Momón",9,Centro SCT Chiapas,7,16.279006,-91.597139,,127846719,2017,Comunicaciones y Transportes,
'11096270045,"San Quintín - Rómulo Calzada, Tr Santa Martha Corozal - Rómulo Calzada",9,Centro SCT Chiapas,7,16.527294,-91.479777,,142998925,2017,Comunicaciones y Transportes,
'12096360009,Libramiento Villa Victoria,9,Centro SCT Michoacán,16,18.75657222,-103.364175,,12851605,2017,Comunicaciones y Transportes,
'1450GYR0054,Programa de adquisición de equipo de transporte vertical.,50,Instituto Mexicano del Seguro Social,35,0,0,22,55757135,2016,Salud,11228492
'0818TOQ0106,OBRAS CIVILES DE LA SUBDIRECCION DE TRANSMISION 2008-2010,53,Comisión Federal de Electricidad,35,0,0,26.55,725741775,2017,Energía,82106605
'1607HXA0027,"Mantenimiento y Rehabilitación de la U.H.M. Cuautla III, Mor.",7,Instituto de Seguridad Social para las Fuerzas Armadas Mexicanas,17,0,0,,13880575,2017,Desarrollo Social,
'1606G1H0003,Proyecto para la Adquisición para Reemplazo y Renovación de Bienes 2017,6,"Banco Nacional del Ejército, Fuerza Aérea y Armada, S.N.C.",35,0,0,,130600000,2017,Desarrollo económico,
'1218T4L0023,Proyecto Soporte Región Marina Suroeste 3ra. Etapa,52,Pemex Exploración y Producción,35,0,0,99.93,217928944,2017,,85493
'1606HAT0001,Programa de adquisición de bienes informáticos,6,Fondo de Capitalización e Inversión del Sector Rural,9,0,0,,645000,2017,"Agricultura, Ganadería, Desarrollo Rural, Pesca y Alimentación",
'1418T4M0010,Guarniciones Militares para la Subdirección de Almacenamiento y Reparto,52,Pemex Logística,35,0,0,5.74,499829153,2017,,81645103
'1606HBW0003,Infraestructura Institucional del Centro de Desarrollo Tecnológico La Noria del ejercicio 2017,6,"Fondo de Garantía y Fomento para la Agricultura, Ganadería y Avicultura",24,0,0,,1000000,2017,"Agricultura, Ganadería, Desarrollo Rural, Pesca y Alimentación",
'1418T4M0048,"Estudio de preinversión para la recuperación de gases enviados a desfogue y sustitución de quemadores de piso por quemadores elevados en la refinería Gral. Lázaro Cárdenas de Minatitlán, Ver.",52,Pemex Transformación Industrial,30,0,0,94.91,19241924,2016,Energía,0
'1418T4M0041,Adquisición de catalizadores capitalizables para el proceso de hidrotratamiento en la refinería de Tula,52,Pemex Transformación Industrial,13,0,0,1.34,100670867,2017,Energía,0
'1318TOQ0014,Equipamiento de Centros de Reparación de la Subdirección de Transmisión 2013-2015,53,Comisión Federal de Electricidad,35,0,0,0.94,274349435,2017,Energía,804302
'1318TOQ0016,ADQUISICIÓN DE EQUIPOS DE COMUNICACIONES-TIC (TECNOLOGIAS DE INFORMACIÓN Y COMUNICACIONES) SDT 2014-2016,53,Comisión Federal de Electricidad,35,0,0,21.07,286656564,2017,Energía,45272138
'1318TOQ0011,ESTUDIOS DE EVALUACIÓN DEL POTENCIAL DE GENERACIÓN GEOTERMOELÉCTRICA DE LA ZONA DE CERRITOS COLORADOS 2014-2016,53,Comisión Federal de Electricidad,14,0,0,7.03,892044527,2017,Energía,60703081
'1218T4L0018,Proyecto Ogarrio - Sánchez Magallanes,52,Pemex Exploración y Producción,35,0,0,57.45,54125533143,2017,Energía,4908192581
'15096440003,La Cuesta - Tancanhuitz.,9,Centro SCT San Luis Potosí,24,21.624834,-98.977494,92.2,12191068,2016,Comunicaciones y Transportes,11758816
'15096320010,Modernización del Camino San Luis Acatlán - Nejapa  Camalotillo.,9,Centro SCT Guerrero,12,16.810418,-98.724296,10.87,85297450,2017,,9945574
'14096500048,Monterreal-Barrio de Santa Cruz.,9,Centro SCT Veracruz,30,19.728661,-96.924627,38.89,19949629,2017,,4982252
'1609J3B0001,Escalamiento a full scan de los equipos portal vacis (rayos gamma) de primera y segunda generación,9,"Administración Portuaria Integral de Manzanillo, S.A. de C.V.",6,0,0,51.01,77831703,2017,Comunicaciones y Transportes,38427500
'1609JZL0002,Programa de rehabilitación y/o sustitución de caminos y cercados perimetrales para la seguridad y obras de protección ambiental 2016-2017,9,Aeropuertos y Servicios Auxiliares,35,0,0,82,15202262,2017,Comunicaciones y Transportes,7103754
'1618T0O0003,"PROGRAMA DE ADQUISICIÓN DE BIENES PARA EL ÁREA DE SERVICIOS, 2017",18,Instituto Mexicano del Petróleo,9,0,0,,111955851,2017,Desarrollo económico,
'1651GYN0008,Fortalecimiento de equipo médico en hospitales regionales de tercer nivel de atención de la salud en el ISSSTE.,51,Instituto de Seguridad y Servicios Sociales de los Trabajadores del Estado,35,0,0,,970763597,2017,Salud,
'1616B000036,Rehabilitación y Modernización de Distritos de Riego en la Cuenca Golfo Norte. CG-185,16,Comisión Nacional del Agua,35,0,0,,77485600,2017,"Agricultura, Ganadería, Desarrollo Rural, Pesca y Alimentación",
'1650GYR0050,"Ampliación y Remodelación de UMAE Ignacio García Téllez en Mérida, Yucatán",50,Instituto Mexicano del Seguro Social,31,20.9778667,-89.6038443,0,68841224,2017,Salud,0
'1550GYR0053,"Ampliación y remodelación de la Unidad de Cuidados Intensivos de Neonatales (UCIN) del HGZMF No.1 La Paz, Baja California Sur",50,Instituto Mexicano del Seguro Social,3,24.1275056,-110.315925,0,1911999,2017,Salud,191284
'16096400005,"Modernización a nivel de pavimento del camino Crucero Cerro Costoche-Entronque Agua Sabache-km 105+700 E.C. (Mitla  Entronque Tehuantepec II) - San Pablo Lachiriega-San Pedro Quiatoni, Tramo del km 0+000 al km 32+000",9,Centro SCT Oaxaca,20,16.906506,-96.075875,0,142160249,2017,Comunicaciones y Transportes,0
'1611A3Q0003,Programa anual de adquisiciones de bienes no asociados a la obra pública destinados a la educación superior en Facultades y Escuelas de Medicina y Ciencias ubicadas en C.U.,11,Universidad Nacional Autónoma de México,9,0,0,,49166381,2017,Educación,
'1550GYR0029,"Ampliación y remodelación del servicio de Urgencias del Hospital General de Zona con Medicina Familiar No. 2 en Irapuato, Guanajuato",50,Instituto Mexicano del Seguro Social,11,20.686502,-101.360167,0,45316360,2017,Salud,0
'0318T4N0037,Modernización del proceso de endulzamiento en el CPG Nuevo Pemex,52,Pemex Transformación Industrial,27,17.8569194,-93.1234361,74.33,439271146,2016,Energía,0
'153890O0001,"Construcción de edificio de cubículos para investigadores, del Centro de Investigaciones Biológicas del Noroeste, S.C.",38,"Centro de Investigaciones Biológicas del Noroeste, S.C.",3,24.135765,-110.426038,6.1,6391133,2016,Desarrollo económico,0
'0518T4M0006,Reemplazo de las reformadoras BTX y NP-1,52,Pemex Transformación Industrial,30,17.980856,-94.529114,29.09,5084301059,2017,Energía,16269607
'1518TOM0010,ACTUALIZACIÓN DE LOS SISTEMAS  DE SEGURIDAD FISICA DE LAS INSTALACIONES DEL CENACE PARA LA OPERACIÓN DEL SISTEMA ELECTRICO NACIONAL Y DEL MERCADO ELECTRICO MAYORISTA  (2016 -2018),18,Centro Nacional de Control de Energía,35,0,0,4.9,124040651,2017,Energía,4521179
'153891W0001,Programa Anual de Adquisiciones para equipamiento de laboratorios IPICYT 2016,38,"Instituto Potosino de Investigación Científica y Tecnológica, A.C.",24,0,0,56.79,29134586,2016,Desarrollo económico,7087941
'1518T0O0001,UNIDAD DE DEMOSTRACION PARA PRODUCCION DE ETILENO,18,Instituto Mexicano del Petróleo,9,0,0,0,67784713,2017,Desarrollo económico,0
'0718T4M0001,Infraestructura para incrementar la capacidad del Sistema de Almacenamiento y Distribución Tuxpan - México.,52,Pemex Transformación Industrial,35,0,0,92.85,4935190758,2017,Energía,15333130
'1518T0O0005,Programa de Adquisiciones de Investigación 2016,18,Instituto Mexicano del Petróleo,9,0,0,33.03,154970069,2016,Desarrollo económico,32779042
'1550GYR0016,"Ampliación y Remodelación del Área de Urgencias del Hospital General Regional N 12 Lic. Benito Juárez García, Mérida, Yucatán.",50,Instituto Mexicano del Seguro Social,31,20.98888853,-89.6403055,0,40504548,2017,Salud,59122
'16096310002,PAVIMENTACIÓN DEL CAMINO DE ACCESO A LA COMUNIDAD DE LA SOLEDAD NUEVA,9,Centro SCT Guanajuato,11,21.280597,-100.919409,0,12397696,2017,Comunicaciones y Transportes,0
'1611A3Q0006,Programa Anual de Adquisiciones de Bienes Informáticos no Asociados a la Obra Pública destinados a la Educación Superior en Facultades y Escuelas ubicadas en C.U.,11,Universidad Nacional Autónoma de México,9,0,0,,49716541,2017,Educación,
'15096360002,Monte Grande - Ixtaro Tramo cantera - Ixtaro Tomendán,9,Centro SCT Michoacán,16,19.313366,-101.858166,0,167312590,2017,Comunicaciones y Transportes,0
'16096500003,Xocotla - Zacatla.,9,Centro SCT Veracruz,30,18.994917,-97.089958,23.81,35689867,2017,Comunicaciones y Transportes,4780961
'1611A3Q0008,Programa anual de mantenimiento a la infraestructura física de las Escuelas y Colegios de Educación Media Superior.,11,Universidad Nacional Autónoma de México,35,0,0,,52947674,2017,Educación,
'16096520003,Florencia de Benito Juárez - Atolinga Tramo: Florencia - Limite de Edos. Jal/Zac,9,Centro SCT Zacatecas,32,21.507676,-103.555252,0,49590784,2017,Comunicaciones y Transportes,0
'1611A3Q0018,"Programa anual de mantenimiento a la infraestructura física de los Recintos, Entidades y Centros de Difusión Cultural.",11,Universidad Nacional Autónoma de México,35,0,0,,41379458,2017,Educación,
'1611A3Q0014,Programa anual de adquisiciones de bienes no asociados a la obra pública destinados a la educación en el nivel posgrado.,11,Universidad Nacional Autónoma de México,35,0,0,,29123938,2017,Educación,
'1611A3Q0016,"Programa anual de mantenimiento a la infraestructura física de los Centrtos e Institutos de Investigación Científica, Desarrollo Tecnológico y Humanidades ubicados en C.U.",11,Universidad Nacional Autónoma de México,9,0,0,,126597121,2017,Desarrollo económico,
'1611A3Q0017,"Programa anual de adquisiciones de bienes no asociados a la obra pública destinados a las entidades universitarias de apoyo a la docencia, investigación y servicios a estudiantes.",11,Universidad Nacional Autónoma de México,9,0,0,,49967195,2017,Educación,
'1650GYR0020,"Ampliación y Remodelación de la UMF No. 52 Cosoleacaque en la localidad de Minatitlán, Veracruz Sur.",50,Instituto Mexicano del Seguro Social,30,18.0036,-94.6076,0,51353922,2017,Salud,0
'1650GYR0022,"Construcción de la Unidad de Cuidados Intensivos Neonatales (UCIN) del HGR 46 Guadalajara, Jalisco",50,Instituto Mexicano del Seguro Social,14,20.6473,-103.36,0,19433151,2017,Salud,0
'1650GYR0026,"Construcción de Hospital General de Subzona de 20 camas en el municipio de Ixtapan de la Sal, Estado de México",50,Instituto Mexicano del Seguro Social,15,18.837931,-99.672986,0,118811254,2017,Salud,5719951
'1650GYR0040,"Construcción de la Unidad de Medicina Familiar con 10 consultorios y atención médica continua, en el municipio de Rosarito, en la delegación de Baja California",50,Instituto Mexicano del Seguro Social,2,32.33875333,-117.0467123,0,64054762,2017,Salud,0
'1616B000072,Rehabilitación de Áreas de Temporal en el estado de Nayarit.,16,Comisión Nacional del Agua,18,0,0,,6769142,2017,"Agricultura, Ganadería, Desarrollo Rural, Pesca y Alimentación",
'1418T4N0014,"Mantenimiento mayor de las plantas Endulzadora de gas 2, Recuperadora de azufre 2 y Criogénica del CPG Matapionche",52,Pemex Transformación Industrial,30,0,0,0,96742680,2017,Energía,241950
'1318T4N0031,Mantenimiento mayor de la planta criogénica del CPG La Venta,52,Pemex Transformación Industrial,27,0,0,29.1,154701378,2017,Energía,23495305
'1418TOQ0010,MANTENIMIENTO DE LÍNEAS AÉREAS DE TRANSMISIÓN DE LA ZONA DE TRANSMISIÓN METROPOLITANA 2014-2016,53,Comisión Federal de Electricidad,35,0,0,28.89,547654069,2017,Energía,62799584
'1418T4N0009,"Adquisición de equipos y rehabilitación de las plantas de proceso, servicios auxiliares e infraestructura complementaria para  la continuidad operativa del CPG Poza Rica",52,Pemex Transformación Industrial,30,0,0,0.07,289453883,2017,Energía,14573814
'1650GYR0043,"Construcción de nueva UMF de 10 consultorios en la localidad de Apodaca, Nuevo León",50,Instituto Mexicano del Seguro Social,19,25.78226,-100.184928,0,78479167,2017,Salud,0
'1318TOQ0041,CONSTRUCCIÓN DE INSTALACIÓN INDEPENDIENTE PARA ALMACENAMIENTO EN SECO DE COMBUSTIBLE NUCLEAR GASTADO EN LA CNLV 2014-2016,53,Comisión Federal de Electricidad,30,19.62,-96.73,67.06,684992663,2017,Energía,2561457
'1318TOQ0042,INTERCONEXIÓN DE LA RED NACIONAL DE FIBRA OPTICA DE CFE CON BAJA CALIFORNIA SUR 2013-2014,53,Comisión Federal de Electricidad,35,0,0,0.15,290668133,2017,,762614
'1418TOQ0019,"RESTITUCIÓN INTEGRAL DEL SISTEMA DE AUSCULTACIÓN DE LAS GRANDES CORTINAS PARA EVALUAR LA SEGURIDAD GEOTÉCNICA Y ESTRUCTURAL DE LA INFRAESTRUCTURA CIVIL, EN CENTRALES HIDROELÉCTRICAS 2014-2016",53,Comisión Federal de Electricidad,35,0,0,0,139100090,2017,Energía,0
'1607HXA0003,Sustitución de bienes muebles adheridos a las viviendas 2017,7,Instituto de Seguridad Social para las Fuerzas Armadas Mexicanas,9,0,0,,10499066,2017,Desarrollo Social,
'1604E2D0001,Adquisición de maquinaria y equipo industrial 2017,4,Talleres Gráficos de México,9,0,0,,61312392,2017,Gobierno,
'1418T4N0010,"Modernización de los sistemas de monitoreo, control y supervisión del transporte por ducto, etapa II",52,Pemex Logística,35,0,0,7.58,1047841387,2017,,1026669
'1418TOQ0069,VENTEO DE EMERGENCIA RÍGIDO DEL POZO HÚMEDO EN AMBAS UNIDADES DE LA CNLV 2015-2018,53,Comisión Federal de Electricidad,30,19.43,-96.23,0,106872660,2017,Energía,0
'1418TOQ0074,ACTUALIZACIÓN TECNOLÓGICA DEL ÁREA DE TECNOLOGÍAS DE INFORMACIÓN Y COMUNICACIONES CNLV 2015-2017,53,Comisión Federal de Electricidad,30,0,0,0.76,78295220,2017,Energía,577873
'1518TOQ0002,REEMPLAZO DE MAQUINARIA PESADA DE LA CNLV 2015-2016,53,Comisión Federal de Electricidad,30,0,0,0,26131790,2017,Energía,0
'1650GYR0002,"Construcción de la Unidad de Medicina Familiar de 6 consultorios en la localidad de Cd. Cuauhtémoc, Chihuahua.",50,Instituto Mexicano del Seguro Social,8,28.40643,-106.86828,0,25252255,2017,Salud,0
'1418T4I0006,Adquisición de infraesrtructura de procesamiento para Centros de Cómputo de la DCTIPN,52,Pemex Corporativo,35,0,0,30.6,198177287,2017,,0
'16092110001,Programa de Conservación Rutinaria de Puentes,9,Dirección General de Conservación de Carreteras,35,0,0,,227291094,2017,Comunicaciones y Transportes,
'16092110003,Programa de Reconstrucción de Puentes Para el Ejercicio 2017,9,Dirección General de Conservación de Carreteras,35,0,0,,1033141336,2017,Comunicaciones y Transportes,
'1418TOQ0063,Recalibración de la Línea de Transmisión Texcoco - La Paz,53,Comisión Federal de Electricidad,15,19.542016,-98.838945,47.3,190698215,2017,Energía,8720144
'1418T4O0008,Rehabilitación Integral de los Reformadores Primarios 101-B y Calderas Auxiliares 101-BAUX de las Plantas de Amoniaco VI y VII del Complejo Petroquímico Cosoleacaque.,52,Pemex Fertilizantes,30,0,0,0,359445189,2017,Energía,0
'1427A000023,"Reordenamiento Integral del Puerto Fronterizo Nuevo Progreso, Tamps.",27,Instituto de Administración y Avalúos de Bienes Nacionales,28,0,0,0,2754800,2017,,0
'1612NCD0004,Programa de Anual de Mantenimiento 2016,12,Instituto Nacional de Enfermedades Respiratorias Ismael Cosío Villegas,9,0,0,100,13120895,,,4011398
'1516B000062,"Impacto de la subsidencia del terreno sobre la infraestructura de las Plantas de Tratamiento de Agua Residual, así como en la infraestructura hidráulica de captación y conducción, Subsistema Hidrológico de la Zona Federal Lago de Texcoco.",16,Comisión Nacional del Agua,15,0,0,0,5861270,2017,,0
'1018TOQ0013,MODERNIZACIÓN INTEGRAL DE LAS CUATRO CENTRALES DEL SISTEMA HIDROELÉCTRICO NECAXA.,53,Comisión Federal de Electricidad,21,20.13,-97.59,38.52,850410148,2016,,0
'1018T4M0029,Sustitución de 2 Monoboyas de las Terminales Marítimas de Tuxpan y Salina Cruz.,52,Pemex Logística,35,0,0,86.02,243571086,2017,,0
'15096210003,PSV Carretera Federal No. 45 Ags/Zacs-con Av. Siglo XXI,9,Centro SCT Aguascalientes,1,21.9444,-102.2897,0,159724911,2017,,0
'13132110009,Construcción de Buques de Investigación para Levantamientos Hidrográficos,13,Dirección General de Construcciones Navales,34,0,0,0,419347180,2017,,0
'1312NEF0009,Programa de sustitución de equipo obsoleto en el Instituto Nacional de Higiene e Instituto Nacional de Virología.- 2014-2017,12,"Laboratorios de Biológicos y Reactivos de México, S.A. de C.V.",9,0,0,1.06,13763941,2017,,0
'1318T4I0021,"Ampliación y remodelación del CENDI Villahermosa, Tab.",52,Pemex Corporativo,27,18.02,-92.95,0,19527738,2017,Energía,0
'1318T4N0003,Mantenimiento Integral de la Planta Fraccionadora No. 2 del Complejo Procesador de Gas Nuevo Pemex,52,Pemex Transformación Industrial,27,0,0,32.11,435584899,2017,Energía,48053110
'1318T4N0004,Mantenimiento mayor de la Planta Fraccionadora de Hidrocarburos del CPG Cactus 2013-2014,52,Pemex Transformación Industrial,7,0,0,60.98,127648215,2017,Energía,13089247
'1218T4O0019,"Sostenimiento y Optimización de la Capacidad de Operación de las Terminales Refrigeradas de Etileno, TREEP I y II del Complejo Petroquímico Pajaritos",52,Pemex Etileno,30,18.063927,-94.232122,2.27,885402085,2017,Energía,0
'16092120004,"Actualización de  normas, manuales técnicos y Tabulador de precios unitarios.",9,Dirección General de Servicios Técnicos,35,0,0,,17961162,2017,Comunicaciones y Transportes,
'16092140001,Programa de estudios y proyectos de desarrollo carretero 2017,9,Dirección General de Desarrollo Carretero,35,0,0,,635355060,2017,Comunicaciones y Transportes,
'1611L8K0001,Adquisición de vehículos para la actualización del parque vehicular utilitario 2017,11,"El Colegio de México, A.C.",9,0,0,,959788,2017,Desarrollo económico,
'1418T4O0012,Programa de Adquisiciones de equipo de Separación de la FEA,52,Pemex Transformación Industrial,30,0,0,,1504777849,2017,Energía,
'1418T4O0013,Programa de mantenimiento de la planta de Generación de Vapor,52,Pemex Etileno,30,0,0,0,404955472,2017,Energía,1539482
'14096350028,Desviación a Santa Rosa - Tultenango.,9,Centro SCT México,15,19.807823,-100.09064,,21484215,2017,Comunicaciones y Transportes,
'14096380002,Entronque Carretera Federal 200 - Altavista,9,Centro SCT Nayarit,18,21.108031,-105.179619,85.71,44737938,2017,Comunicaciones y Transportes,0
'14096360018,San Antonio  Tierras Blancas  -  San Benito,9,Centro SCT Michoacán,16,19.719991,-102.295746,0,25564536,2016,,0
'12096280021,"Eje Interestatal Fronteriza del Norte, Tr: Rancho el Cuatraldo - El Pajarito.",9,Centro SCT Chihuahua,8,30.129806,-104.945717,0,115417178,2017,,0
'0918TOQ0010,Programa de adquisiciones de equipo auxiliar para la Infraestructura del Centro de Computo ASARE Guadalajara.,53,Comisión Federal de Electricidad,14,0,0,39.53,18987719,2016,,0
'1318T4I0005,"Construcción de la Clínica Satélite en Cd. Madero, Tamaulipas",52,Pemex Corporativo,28,0,0,0,6510714,2016,,0
'12092100007,Libramiento de Escuinapa,9,Dirección General de Carreteras,25,22.8072,-105.7246,4.17,321321417,2017,,38639099
'1516B000070,Conservación y Rehabilitación de Áreas de Temporal en el estado de Tabasco.,16,Comisión Nacional del Agua,27,0,0,49.4,33548158,2016,,16091852
'1511L8K0002,Fortalecimiento y renovación de la infraestructura de los servicios de Tecnologías de la Información y Comunicación TICS 2016,11,"El Colegio de México, A.C.",9,0,0,0,26961838,2016,,0
'1550GYR0038,Adecuación en la Guarderia 001 de Veracruz.,50,Instituto Mexicano del Seguro Social,30,19.199403,-96.15607,99,853744,,Salud,788451
'1512U000018,Oaxaca. Ampliación del Hospital General Dr. Aurelio Valdivieso. Fideicomiso 2016-2017,12,Comisión Nacional de Protección Social en Salud,20,17.0816,-96.7187,35,120964820,,,0
'15071200004,"Actualización de 38 treinta y ocho elevadores de cargo en las Unidades, Dependencias e Instalaciones del Ejército y Fuerza Aérea Mexicana.",7,Comandancia I Región Militar,35,0,0,0,81465246,2016,,0
'12096280022,"Eje Interestatal Fronteriza del Norte, Tr: El Gaytán - El Rómulo.",9,Centro SCT Chihuahua,8,29.814307,-104.788049,0,138500612,2017,,0
'1418T4M0019,"Incremento en la capacidad de almacenamiento del tanque TV-17 de la TOMP Tuxpan, Ver.",52,Pemex Logística,30,20.974071,-97.316528,0,109345697,2017,,0
'1512U000006,Durango.-Construir un Hospital de Especialidades que incluya oncología en la localidad de Gómez Palacio.-Fideicomiso 2015-2016.,12,Comisión Nacional de Protección Social en Salud,10,25.591463,-103.484886,98.7,1052880612,,,0
'14071100020,ADQUISICION DE DOS CONMUTADORES TELEFONICOS PARA ATENCION DE LA DIRECCION GENERAL DE INDUSTRIA MILITAR.,7,Dirección General de Administración,35,0,0,100,5509598,2016,,2795000
'1511L3P0006,Edificio Modular para Aulas y Laboratorios Plantel Río Santiago.,11,Centro de Enseñanza Técnica Industrial,14,20.659945,-103.1953,20,51657067,2017,,15000000
'15093110001,Extensión de la Línea 4 del STC Metro: Martín Carrera Tepexpan,9,Dirección General de Desarrollo Ferroviario y Multimodal,35,0,0,0,26541545525,2017,,0
'1550GYR0057,"Construcción de UMF de 2 consultorios en la localidad de Mezcala, en el municipio Eduardo Neri, Guerrero.",50,Instituto Mexicano del Seguro Social,12,17.933889,-99.601389,0,9058325,2017,,0
'0936F000002,Construcción de Instalaciones Estratégicas de Oficinas y Cuartel para la Policía Federal en el Conjunto CONAFRUT,4,Policía Federal,9,19.385238,-99.247299,20.61,1183284594,2014,,0
'1416RHQ0008,Proyecto de Infraestructura para Oficinas en la Gerencia Estatal de Aguascalientes.,16,Comisión Nacional Forestal,1,21.845219,-102.293469,0,19914282,2016,,0
'13071130004,"Reemplazo de maquinaria y equipo industrial para mejorar los procesos productivos y reducir costos de producción, operación y mantenimiento.",7,Dirección General de Fábricas de Vestuario y Equipo,9,0,0,0,324072609,2016,,0
'15071100036,ADQUISICIÓN DE EQUIPO TERMINAL MOVIL EN BANDA L PARA SU EMPLEO CON EL SISTEMA DE COMUNICACIONES MOVILES POR SATELITE DEL SISTEMA DE SATELITES MEXICANOS MEXSAT.,7,Dirección General de Administración,35,0,0,0,714364787,2017,,0
'15096250001,"Entronque la Cuchilla, de la carretera: Saltillo - Torreón,  Km. 203+300.",9,Centro SCT Coahuila,5,25.6255514,-102.878952,0,121211162,2017,,0
'1018T4M0033,Construcción de una Subestación Eléctrica de 115000 / 34.5 KV en Nuevo Teapa,52,Pemex Logística,30,0,0,16.78,67650419,2017,,0
'1404K000003,DICTAMENES ESTRUCTURALES A INMUEBLES DE LA CIUDAD DE MEXICO,4,Instituto Nacional de Migración,9,19.436972,-99.211375,0,4407678,2017,,0
'15133110003,Adquisición de vehículos tipo ambulancias,13,Dirección General de Recursos Humanos,9,0,0,100,17455925,2016,,2996249
'14071200012,Programa de Adquisición de Equipos de Visión Nocturna para el Ejército Mexicano,7,Comandancia I Región Militar,35,0,0,0,791235649,2016,,0
'1321W3N0006,Proyecto de Infraestructura para el Hotel Ex Convento de Santa Catarina de Siena (Hotel Quinta Real Oaxaca),21,Fondo Nacional de Fomento al Turismo,20,17.063739,-96.722851,0,26964758,2017,,0
'0318T4M0119,Infraestructura Ductos e Instalaciones Golfo,52,Pemex Logística,30,20.562067,-97.447564,99.33,1476650050,2015,,53693670
'1504U000001,Adquisición de mobiliario y equipo administrativo,4,Secretaría Técnica del Consejo de Coordinación para la Implementación del Sistema de Justicia Penal,9,0,0,0,3556012,2016,,0
'11096280009,Chamizal - El porvenir.,9,Centro SCT Chihuahua,8,31.140559,-105.734338,0,153889568,2017,,0
'1316B000082,Programa de estudios de instrumentación de redes de monitoreo piezométrico,16,Comisión Nacional del Agua,35,0,0,0,19899455,2017,,0
'1418TOQ0032,RECONSTRUCCION DE LA CENTRAL HIDROELECTRICA LA VENTA 2014-2016,53,Comisión Federal de Electricidad,12,0,0,0.04,628094204,2017,,0
'1604I000003,Equipos de Administración,4,Centro de Investigación y Seguridad Nacional,35,0,0,0,8544285,,,0
'1609J3A0001,Instalación de luces sectoriales en balizas.,9,"Administración Portuaria Integral de Lázaro Cárdenas, S.A. de C.V.",16,0,0,100,17150146,,,16600000
'1418T4M0049,"Restauración, estandarización y adecuación de los muelles de la TOMP Madero",52,Pemex Logística,28,0,0,1.02,512904318,2017,,139333
'14096340011,La Laja - La Paz.,9,Centro SCT Jalisco,14,20.577778,-103.112192,0,35167614,2016,,0
'15071100027,"ADQUISICIÓN DE VEHÍCULOS PARA ATENCIÓN DE LA DIR. GRAL. DE FÁBRICAS, VESTUARIO Y EQUIPO Y OTRAS DEPENDENCIAS.",7,Dirección General de Administración,35,0,0,18,40643301,2016,,11696663
'1516B000088,Mantenimiento de la Infraestructura para la Protección de Áreas Productivas Región Zona Centro (2016),16,Comisión Nacional del Agua,35,0,0,0,149306106,2017,,0
'1612NCZ0001,"Sustitución de Camas, cunas y camillas para la atención médica hospitalaria en el Instituto Nacional de Pediatría 2017",12,Instituto Nacional de Pediatría,9,0,0,0,45475797,2017,,0
'1318T4M0042,Adquisición de simuladores de entrenamiento de la Refinería de Madero,52,Pemex Transformación Industrial,28,0,0,0,102928214,2016,,0
'1218T4M0036,"Adquisición de 400 carros tanque para desalojo de combustóleo pesado y 300 carros tanque para transporte de hidrocarburos destilados, de la Subdirección de Distribución",52,Pemex Logística,35,0,0,20.6,2084612033,2017,,0
'15178120009,Programa de mantenimiento mayor al inmueble ubicado en la Colonia Roma y en resguardo de la Procuraduría General de la República.,17,Dirección General de Recursos Materiales y Servicios Generales,9,0,0,100,8858912,,Seguridad,1532081
'15131130002,Adquisición de Equipos de Posicionamiento global y sensores,13,Estado Mayor General de la Armada,9,0,0,0,26642132,2016,,0
'15071100020,PRIMERA FASE PARA LA ADQUISICION DE EQUIPOS Y SISTEMAS DE COMUNICACION PARA 11 BATALLONES DE INFANTERIA DE NUEVA CREACION,7,Dirección General de Administración,9,0,0,14,144369121,2016,,19207946
'14132120015,Actualización de Equipos Informáticos para la Modelación Numérica,13,Dirección General de Investigación y Desarrollo,9,0,0,0,11881125,2017,,0
'1650GYR0019,"Ampliación y Remodelación de la Unidad de Cuidados Intensivos Adultos (UCIA) del HGR 1 Culiacán, Sinaloa.",50,Instituto Mexicano del Seguro Social,25,24.7973,-107.39,0,6715419,2017,,0
'0836E000014,"Construcción, amueblado y equipado del Cuartel para la Policía Federal y Custodios en el Centro Federal de Readaptación Social No. 1 Altilpano.",4,Prevención y Readaptación Social,15,19.421363,-99.750024,80.97,625325469,2015,,0
'1616RHQ0001,Adquisición de Equipo para Escuelas Forestales.,16,Comisión Nacional Forestal,35,0,0,0,1196744,,,0
'11096280005,Aviones - Paso de San Antonio,9,Centro SCT Chihuahua,8,28.885538,-103.615494,0,169278524,2017,,0
'1309J2Y0009,Equipo de Rayos Gamma para la Aduana,9,"Administración Portuaria Integral de Altamira, S.A. de C.V.",28,0,0,0,43809522,2014,,27100000
'14096500001,El Pedregal - Rincón de Capulapa.,9,Centro SCT Veracruz,30,19.089072,-96.881188,66.25,69563483,2017,,0
'1418T4O0022,Programa de Manteniemiento de la infraestructura civil del CP. Cangrejera,52,Pemex Etileno,30,0,0,0,326443697,2017,,0
'1409J9E0002,programa de mantenimiento de oficinas postales para el ejercicio  2014,9,Servicio Postal Mexicano,9,0,0,18.1,34159509,,Comunicaciones y Transportes,568555
'1314A000001,Programa de Adquisición de mobiliario para la Profedet,14,Procuraduría Federal de la Defensa del Trabajo,9,0,0,0,1567900,2016,,0
'1118TOQ0009,MAQUINARIA DE APOYO EN EMERGENCIAS CLIMATOLOGICAS,53,Comisión Federal de Electricidad,35,0,0,90,27920132,2015,,0
'1218T4O0001,Adquisición de equipos para Seguridad y Protección Ambiental derivado de Observaciones y Normatividad en el Complejo Petroquímico Independencia,52,Pemex Transformación Industrial,21,0,0,6.86,36073775,2015,,491786
'14096280003,Paso Superior de Ferrocarril  La Cruz,9,Centro SCT Chihuahua,8,28.3832,-106.1295,0,87688664,2017,,0
'1404L000005,Equipamiento de Laboratorios de la Coordinación de Criminalística. Segunda Parte,4,Policía Federal,9,0,0,24.58,110703547,2016,,0
'1521W3N0005,Mantenimiento y Operación del Centro Integralmente Planeado y Proyecto Turístico Integral del Caribe 2016,21,Fondo Nacional de Fomento al Turismo,23,0,0,99,175660612,2016,,166703741
'13071130008,Sustitución de maquinaria para el proceso de tejido de la tela RipStop para la confección del uniforme de campaña.,7,Dirección General de Fábricas de Vestuario y Equipo,9,0,0,100,110191965,2016,,17090130
'1650GYR0046,"Ampliación y remodelación del servicio de Urgencias del Hospital General de Subzona con Medicina Familiar No. 2  en Ciudad Constitución, Baja California Sur.",50,Instituto Mexicano del Seguro Social,3,25.022812,-111.669395,0,42436697,2017,,0
'1416B000142,"Obras de mantenimiento del canal Castera, en la zona norte del Estado de México.",16,Comisión Nacional del Agua,15,0,0,0,44876185,2017,,0
'1427A000028,"Reordenamiento Integral del Puerto Fronterizo El Porvenir, Chih.",27,Instituto de Administración y Avalúos de Bienes Nacionales,8,0,0,0,2754800,2017,,0
'15096400007,E.C. (Díaz Ordaz-Villa Alta) - E.C.(Mitla-Totontepec Villa De Morelos) del Km 0+000 al km 18+000.,9,Centro SCT Oaxaca,20,17.294254,-96.153148,0,102280992,2017,,0
'1416B000124,Programa de mantenimiento de medidores en las fuentes de abastecimiento.,16,Comisión Nacional del Agua,35,0,0,85.73,12923343,2015,,3642972
'1411B000011,PROGRAMA DE ACTUALIZACIÓN Y FORTALECIMIENTO AL NIVEL MEDIO SUPERIOR EN LAS AREAS DE FORMACIÓN PROFESIONAL EN LABORATORISTA QUÍMICO,11,Instituto Politécnico Nacional,9,0,0,0,39737384,2017,,0
'15071120003,Equipamiento y modernización de Equipos para incrementar la Seguridad en la Dirección General de Industria Militar.,7,Dirección General de Industria Militar,35,0,0,0,1081141,2017,,0
'1318TOQ0055,"Programa de Adquisición de Equipo de Cómputo, Software y Comunicaciones de la Dirección de Administración",53,Comisión Federal de Electricidad,9,0,0,0,19727907,2016,,0
'1511L6H0002,"Programa de Adquisiciones para la actualización tecnológica del equipamiento de laboratorios, talleres y espacios físicos de las unidades del Nivel Medio Superior del Instituto Politécnico Nacional.",11,Comisión de Operación y Fomento de Actividades Académicas del Instituto Politécnico Nacional,35,0,0,24.9,20662827,2016,,3984170
'16178160004,Adquisición de equipos integrales de seguridad,17,Dirección General de Seguridad Institucional,9,0,0,0,23245680,,,0
'0818T4O0047,Sostenimiento de la capacidad de producción de los servicios auxiliares III en C.P. Cangrejera,52,Pemex Etileno,30,0,0,28.91,1194847946,2017,,16991812
'1550GYR0018,"Demolición de los edificios 1, 2 y 3 del Hospital General de Zona No. 26.",50,Instituto Mexicano del Seguro Social,9,0,0,94,7744815,2016,,5373523
'1450GYR0034,Renovación de equipo médico e instrumental quirúrgico en unidades de los tres niveles de atención a la salud del IMSS.,50,Instituto Mexicano del Seguro Social,35,0,0,98.51,154971201,,Salud,40600
'0917SKC0001,Proyecto de inversión de la Construcción y equipamiento de aulas para capacitar ministerios públicos de la federación,17,Instituto Nacional de Ciencias Penales,9,0,0,0,25841346,2016,,0
'1412U000032,Oaxaca.- Ampliación y Equipamiento del Centro Estatal de Oncología y Radioterapia de Oaxaca de Juárez.- Fideicomiso 2014-2016,12,Comisión Nacional de Protección Social en Salud,20,17.07453802,-96.72617348,60,198659585,,,0
'15096210002,PSV Siglo XXI Ote. con carretera federal no. 70 Ojuelos - Aguascalientes,9,Centro SCT Aguascalientes,1,21.8666,-102.245,0,118610773,2017,,0
'1618T0Q0006,Programa de adquisición de Sistema Modular de Flujo laminar,18,Instituto Nacional de Investigaciones Nucleares,15,0,0,0,2961047,,,0
'1511M000004,"Equipamiento de Laboratorios y Talleres de las Unidades Académicas del Tecnológico Nacional de México, Zona Norte.",11,Tecnológico Nacional de México,35,0,0,0,74597905,,Educación,0
'1512U000015,Veracruz. Construcción del Hospital Regional de Alta Especialidad en el Sur de Veracruz.- Fideicomiso 2015 - 2017.,12,Comisión Nacional de Protección Social en Salud,30,18.14551072,-94.5119321,0,552444682,,,0
'1651GYN0024,"Ampliación y remodelación de la Clínica de Medicina Familiar de Ecatepec de Morelos, Estado de México.",51,Instituto de Seguridad y Servicios Sociales de los Trabajadores del Estado,15,19.6024879,-99.0520627,0,47089292,2017,,0
'1507HXA0032,"Demolición de una vivienda en la U.H.M. Cd. Juárez I, Chih.",7,Instituto de Seguridad Social para las Fuerzas Armadas Mexicanas,8,31.737514,-106.436165,100,106888,2016,Desarrollo Social,102722
'1506HKA0003,Adquisición de Mobiliario para Delegaciones Regionales.,6,Servicio de Administración y Enajenación de Bienes,25,0,0,100,3250501,2016,Gobierno,2414679
'1507HXA0010,"Construcción de la U.H.N. Manzanillo VII, Col.",7,Instituto de Seguridad Social para las Fuerzas Armadas Mexicanas,6,19.104062,-104.337556,100,101173820,2016,Desarrollo Social,21147096
'1507HXA0014,"Construcción de la U.H.N. Cd. Madero II, Tamps.",7,Instituto de Seguridad Social para las Fuerzas Armadas Mexicanas,28,22.277999,-97.80041,78.05,86439684,2017,Desarrollo Social,43573879
'1506HBW0001,Infraestructura de Invernaderos de los Centros de Desarrollo Tecnológico,6,"Fondo de Garantía y Fomento para la Agricultura, Ganadería y Avicultura",35,0,0,1,7855909,2016,"Agricultura, Ganadería, Desarrollo Rural, Pesca y Alimentación",7594135
'1409J3A0003,"Construcción, instalación y puesta en operación de Plantas de Tratamiento de Aguas Residuales",9,"Administración Portuaria Integral de Lázaro Cárdenas, S.A. de C.V.",16,17.98752928,-102.1762317,20,87386194,2017,Comunicaciones y Transportes,4364434
'1509JZL0004,Programa de ayudas técnicas de accesibilidad obra 2016,9,Aeropuertos y Servicios Auxiliares,35,0,0,100,2696499,2016,Comunicaciones y Transportes,1714709
'15096520005,E.C. Huejucar / Monte Escobedo - Colonia Anacleto López.,9,Centro SCT Zacatecas,32,22.324447,-103.421758,97.42,9058325,2017,,7965112
'14096450012,"Calle 800. Valle del Carrizo, Tramo Alfonso G. Calderón-E.C. El Carrizo-El Fuerte.",9,Centro SCT Sinaloa,25,26.066821,-109.025785,18.51,96633945,2017,,7859433
'1218T4O0025,Mantenimiento de la Capacidad de Producción de la Planta de Acrilonitrilo,52,Pemex Etileno,30,0,0,36.63,88782965,2017,,6917322
'1606HBW0002,Infraestructura Institucional del Centro de Desarrollo Tecnológico Tantakin del ejercicio 2017,6,"Fondo de Garantía y Fomento para la Agricultura, Ganadería y Avicultura",31,20.036311,-89.0517239,,2686380,2017,"Agricultura, Ganadería, Desarrollo Rural, Pesca y Alimentación",
'1318TOQ0015,ADQUISICIÓN DE EQUIPO DIVERSO DE LA SUBDIRECCIÓN DE TRANSMISIÓN 2013-2015,53,Comisión Federal de Electricidad,35,0,0,7.19,197457485,2017,Energía,2723283
'1218TOQ0072,Ampliación de Redes de Distribución de 13 Divisiones 2013-2015,53,Comisión Federal de Electricidad,35,0,0,26.27,14407126603,2017,Energía,408693820
'1318TOQ0006,ADQUISICIÓN DE EQUIPO HERRAMENTAL DE LA ZONA DE TRANSMISIÓN METROPOLITANA 2013-2015,53,Comisión Federal de Electricidad,35,0,0,10.82,78139671,2017,Energía,0
'1550GYR0052,"Construcción de UMF de 10 consultorios en el municipio de León, Guanajuato",50,Instituto Mexicano del Seguro Social,11,21.09785,-101.6935,0,80951260,2017,Salud,0
'15096320005,"Construccion  de Carretera Las Joyas al Km 30,   Municipio de Acapulco de Juarez, Gro.",9,Centro SCT Guerrero,12,16.996517,-99.769039,28.33,44516305,2017,Comunicaciones y Transportes,0
'1616B000004,"Programa de acciones de obra para la conservación, rehabilitación  y mantenimiento del sistema de acción inmediata (PAI Norte)",16,Comisión Nacional del Agua,35,0,0,0.89,2467997573,2017,Desarrollo Social,22488939
'1550GYR0055,"Construcción de UMF de 6 consultorios en el municipio de Corregidora, Querétaro",50,Instituto Mexicano del Seguro Social,22,20.518511,-100.423953,1,50783557,2017,Salud,358128
'16096320002,Camino Rural Poblado del Quemado - Poblado Lomas del Aire.,9,Centro SCT Guerrero,12,16.937298,-99.824195,0,37957612,2017,Comunicaciones y Transportes,0
'1616B000068,Rehabilitación y Modernización de Distritos de Riego en la Cuenca Pacífico Norte.,16,Comisión Nacional del Agua,35,0,0,,72319894,2017,"Agricultura, Ganadería, Desarrollo Rural, Pesca y Alimentación",
'1511L4J0002,"Programa Anual de Adquisición de Bienes Muebles, para Laboratorios y Aulas del Cinvestav, Financiado con Recursos Autogenerados.",11,Centro de Investigación y de Estudios Avanzados del Instituto Politécnico Nacional,35,0,0,100,153943536,2016,Desarrollo económico,113108306
'1616B000037,"Sobreelevación y reconstrucción del Canal Principal Humaya del Distrito de Riego 010 Culiacán - Humaya, Sinaloa. CG-099",16,Comisión Nacional del Agua,25,0,0,,144639787,2017,"Agricultura, Ganadería, Desarrollo Rural, Pesca y Alimentación",
'1318T4N0035,Reparación de la planta criogénica 2 del Complejo Procesador de Gas Ciudad Pemex,52,Pemex Transformación Industrial,27,0,0,97.48,100536902,2017,Energía,101137006
'1650GYR0028,"Ampliación y Remodelación de las Áreas de quirófanos y unidad de cuidados intensivos en el Hospital General Regional No. 20 en Tijuana, Baja California",50,Instituto Mexicano del Seguro Social,2,32.499085,-116.965191,0,155693025,2017,Salud,0
'1318TOQ0038,REEMPLAZO DE LA CARCASA EXTERIOR DE LA TURBINA DE ALTA PRESIÓN Y COMPONENTES AUXILIARES DE LAS UNIDADES 1 Y 2 DE LA CNLV 2014-2017,53,Comisión Federal de Electricidad,30,19.62,-96.73,68.9,434585794,2017,,254346527
'1418T4N0021,Modernización integral de las estaciones de medición,52,Pemex Logística,35,0,0,0.6,969084627,2017,,771297
'1418T4O0024,Programa de adquisición de equipos de laboratorio del C.P. Cangrejera,52,Pemex Etileno,30,0,0,0.2,99173801,2017,Energía,0
'1651GYN0006,Fortalecimiento de la infraestructura en los Hospitales de Alta Especialidad en Area Metropolitana.,51,Instituto de Seguridad y Servicios Sociales de los Trabajadores del Estado,9,19.486584,-99.133075,33.47,394872687,2017,Salud,127932185
'1318T4O0009,Mantenimiento de la Capacidad de Producción de la Planta VII de Amoniaco y sus Servicios Auxiliares del Complejo Petroquímico Cosoleacaque,52,Pemex Fertilizantes,30,0,0,20.25,998968842,2017,,17798653
'1418T4I0007,Actualización y mantenimiento de cómputo mayor para soluciones ERP,52,Pemex Corporativo,35,0,0,0,131486562,2017,,0
'1418T4N0023,Acciones para garantizar la operación segura y confiable de las instalaciones y del proceso en el CPG Poza Rica,52,Pemex Transformación Industrial,30,0,0,0,206787972,2017,Energía,0
'1607HXA0017,"Mantenimiento y Rehabilitación de la U.H.M. Chilpancingo III, Gro.",7,Instituto de Seguridad Social para las Fuerzas Armadas Mexicanas,12,0,0,,15172688,2017,Desarrollo Social,
'1318TOQ0054,SUSTITUCIÓN DE TRANSFORMADORES DE POTENCIA DE LA ZONA DE TRANSMISIÓN METROPOLITANA 2014-2016,53,Comisión Federal de Electricidad,35,0,0,0,1144538870,2017,,0
'1418TOQ0002,MODERNIZACIÓN DE SUBESTACIONES DE POTENCIA DE LA ZONA DE TRANSMISIÓN METROPOLITANA 2014-2016,53,Comisión Federal de Electricidad,35,0,0,11.51,2294977549,2017,Energía,255754118
'1418T4I0023,Mantenimiento de las escuelas primarias Art. 123 (PRIMERA ETAPA),52,Pemex Corporativo,35,0,0,0,154511399,2017,Energía,0
'1607HXA0008,"Mantenimiento y Rehabilitación de la U.H.M. Los Mochis, Sin.",7,Instituto de Seguridad Social para las Fuerzas Armadas Mexicanas,25,0,0,0,21142208,2017,Desarrollo Social,0
'1418T4I0002,Rehabilitación y construcción de espacios de la Ex Refinería 18 de Marzo para actividades de seguridad física,52,Pemex Corporativo,9,19.470305,-99.190065,81.77,191757375,2016,Energía,81779908
'1418TOQ0026,REFORZAMIENTO DEL SISTEMA DE ANCLAJE DE LOS CABEZALES DE LAS COMPUERTAS DE OBRA DE EXCEDENCIAS Y MANTENIMIENTO INTEGRAL AL VERTEDOR DE LA CH ÁNGEL ALBINO CORZO (PEÑITAS) 2014-2015,53,Comisión Federal de Electricidad,7,0,0,63.54,123926292,2017,,49927097
'1318T4N0015,"Mantenimiento  Preventivo  predictivo al Turbogenerador TG-4, del  Complejo Procesador de Gas Ciudad Pemex",52,Pemex Transformación Industrial,27,0,0,0.14,35996783,2017,Energía,4877927
'1418T4N0003,"Rehabilitación de las torres de enfriamiento CT-2, CT-3 y CT-4 del Complejo Procesador de Gas Cactus",52,Pemex Transformación Industrial,7,17.896681,-93.193353,22.2,322367058,2017,Energía,69198181
'1318T4N0005,Mantenimiento mayor de la Planta Criogénica Modular No. 6 del CPG Cactus,52,Pemex Transformación Industrial,7,0,0,23.75,135807770,2017,Energía,9168432
'1418T4O0021,Sostenimiento de la Capacidad de Producción de Servicios Auxiliares del Complejo Petroquímico Independencia,52,Pemex Transformación Industrial,21,0,0,0,98645086,2017,Energía,0
'1318T4N0030,Mantenimiento mayor de la planta endulzadora de líquidos  No. 2,52,Pemex Transformación Industrial,27,0,0,24.07,105772554,2017,Energía,0
'1418TOQ0041,LT Red de transmisión asociada a la CG Cerritos Colorados Fase I,53,Comisión Federal de Electricidad,14,0,0,0.66,913780209,2017,Energía,6209815
'1318T4N0002,"Adquisición de Equipos Diversos de Seguridad, Salud y Protección Ambiental del CPG Cactus",52,Pemex Transformación Industrial,7,0,0,8.08,89852132,2017,Energía,0
'1418TOQ0001,ADQUISICIÓN DE 468.26 HECTÁREAS DE TERRENO CAMPO GEOTÉRMICO CERRITOS COLORADOS,53,Comisión Federal de Electricidad,14,20.6633,-103.5312,0,66351432,2017,Energía,0
'1418T4I0020,Sustitución del mobiliario y equipo de oficinas en las unidades administrativas de la Dirección Corporativa de Finanzas,52,Pemex Corporativo,9,0,0,2.22,21731521,2017,Energía,192722
'1550GYR0060,"Sustitución de la UMF No. 51, con 2 consultorios en la localidad de Pitiquito, Sonora.",50,Instituto Mexicano del Seguro Social,26,29.9038,-112.682,0,20523646,2017,Salud,0
'1318T4N0033,Reparación de planta endulzadora de Gas  No. 2  del Complejo Procesador de Gas Ciudad Pemex,52,Pemex Transformación Industrial,27,0,0,40.17,102937947,2017,Energía,13960521
'1318T4N0037,"Adquisición de equipos para maniobras, maquinaria para talleres  y vehículos para transporte de materiales pesados",52,Pemex Transformación Industrial,27,0,0,16.43,97814842,2017,Energía,5730731
'1612NCD0001,"Adquisición de Mobiliario y Equipo de Administración, educacional y recreativo y otros Equipos Ismael Cosío Villegas 2016.",12,Instituto Nacional de Enfermedades Respiratorias Ismael Cosío Villegas,9,0,0,100,5647736,,Salud,1367998
'1550GYR0050,"Ampliación y remodelación de la Unidad de Cuidados Intensivos de Adultos (UCIA) del HGR 12 Mérida, Yucatán",50,Instituto Mexicano del Seguro Social,31,20.988576,-89.638411,0,23184350,2017,,0
'11096360028,San Isidro-Punta del Agua-Incluye ramal a Felipe Carrillo Puerto.,9,Centro SCT Michoacán,16,19.078128,-102.884983,24.1,162949798,2017,,73381
'0818T4O0056,Sostenimiento de la capacidad de producción de derivados del Etano IV en el C.P. Cangrejera,52,Pemex Etileno,30,0,0,9.34,1354929374,2015,,839710
'16092110008,Programa de Estudios y/o Proyectos,9,Dirección General de Conservación de Carreteras,35,0,0,,619884802,2017,Comunicaciones y Transportes,
'1409J2Y0002,Cercado perimetral de predios propiedad de la API - ALT,9,"Administración Portuaria Integral de Altamira, S.A. de C.V.",28,22.431667,-97.874004,41.36,142071246,2017,Comunicaciones y Transportes,11447269
'1312NEF0008,"Programa de mantenimiento a inmuebles y rehabilitación, sustitución y/o readecuación de instalaciones de los Laboratorios de Biológicos y Reactivos de México S.A. de C.V. 2016-2018",12,"Laboratorios de Biológicos y Reactivos de México, S.A. de C.V.",35,0,0,0,30994240,2017,,0
'1611L4J0001,Programa de adquisición de equipos de transporte para actividades de investigación en la Unidad Mérida del Cinvestav,11,Centro de Investigación y de Estudios Avanzados del Instituto Politécnico Nacional,31,0,0,100,1000598,,,968500
'153891M0002,Modernización y equipamiento de los edificios sedes del INFOTEC,38,INFOTEC Centro de Investigación e Innovación en Tecnologías de la Información y Comunicación,35,0,0,100,2459335,,,449548
'1227A000011,"Punto Interno de Control en Palenque, Chiapas",6,Instituto de Administración y Avalúos de Bienes Nacionales,7,17.43948,-91.9418,21.2,34618848,2017,,0
'1516B000101,"Rehabilitación de la Presa Palo Blanco, municipio de Ramos Arizpe, Coahuila.",16,Comisión Nacional del Agua,5,0,0,0,16033546,2017,,0
'1118T4M0024,Seguridad Industrial: Adquisición de Paquete de Presión Balanceada GAR Golfo,52,Pemex Logística,30,0,0,4.22,48459015,2017,,0
'1118T4M0030,Uso eficiente de la energía en la Refinería Gral. Lázaro Cárdenas,52,Pemex Transformación Industrial,30,17.980856,-94.529114,11.17,387197562,2017,,0
'1609J4V0001,AMPLIACIÓN DE COMEDORES EN LAS ESCUELAS NÁUTICAS MERCANTES 2016.,9,Fideicomiso de Formación y Capacitación para el Personal de la Marina Mercante Nacional,30,19.191979,-96.124141,0,11949594,,,0
'1116B000279,Construcción de nuevo edificio para el Centro Meteorológico Regional Golfo Centro.,16,Comisión Nacional del Agua,30,19.14248,-96.11102,99.49,25922475,2012,,2659999
'12096280016,La Cieneguilla - Ojos Calientes.,9,Centro SCT Chihuahua,8,30.755949,-105.251121,0,100028220,2017,,0
'1018TOQ0066,Construcción de Líneas de Transmisión y Subestaciones Centro - Peninsular,53,Comisión Federal de Electricidad,35,0,0,90.24,860294877,2015,,0
'1550GYR0048,"Renivelación de la torre de hospitalización con desplomes fuera de Reglamento de Construcciones del Distrito Federal, en el Hospital General de Zona No. 2-A.",50,Instituto Mexicano del Seguro Social,9,0,0,0,6501292,2016,,0
'15131130001,Creación del Sistema de Inteligencia de la Armada de México,13,Estado Mayor General de la Armada,9,0,0,0,38364670,2017,,0
'1612NAW0002,Equipamiento para el área de Terapia Intensiva Pediátrica del Hospital Juárez de México 2017,12,Hospital Juárez de México,9,0,0,0,33115680,,,0
'1318T4I0022,"Estudios de Preinversión para la construcción de un Centro de Desarrollo Infantil (CEND) en Cd. Pemex, Tabasco.",52,Pemex Corporativo,27,0,0,0,7842558,2016,,0
'1409J2V0001,Ampliación de la banda de atraque de los muelles 2 y 3,9,"Administración Portuaria Integral de Puerto Vallarta, S.A. de C.V.",14,20.6536272,-105.2432299,0,39936556,2017,,0
'13132120010,Ampliación de la Red Mareográfica Nacional de la Secretaría de Marina,13,Dirección General de Investigación y Desarrollo,9,0,0,0,5421822,2017,,0
'11096410019,Santa Cecilia Clavijero - Colonia Miguel Hidalgo,9,Centro SCT Puebla,21,18.44978,-97.796103,7.14,104408156,2017,,0
'1427A000033,Reordenamiento Integral del Puerto Fronterizo Nogales III,6,Instituto de Administración y Avalúos de Bienes Nacionales,26,0,0,0,8484782,2017,,0
'1118T4I0007,"Ampliación centro de desarrollo infantil en Poza Rica, Ver.",52,Pemex Corporativo,30,20.514334,-97.456102,3.6,34198298,2017,Energía,0
'16095100003,"Conservación de Infraestructura Marítimo-Portuaria, Dragado de Mantenimiento y Obras Complementarias en la Región Golfo Sureste y Caribe",9,Dirección General de Puertos,31,0,0,0,20662827,2017,,0
'1516B000068,Modernización de la operación y de los componentes del sistema hidrológico del Valle de México,16,Comisión Nacional del Agua,35,0,0,0,49319915,2017,,0
'1618T0Q0004,Adquisición de equipo de laboratorio para desarrollo del proyecto Laboratorio Nacional de Investigación y Desarrollo de Radiofármacos,18,Instituto Nacional de Investigaciones Nucleares,15,0,0,100,20534705,,,23635771
'1316B000083,Programa de estudios de reactivación de redes de monitoreo piezométrico en los acuíferos del país.,16,Comisión Nacional del Agua,35,0,0,0,15553597,2016,,0
'1516F000002,"Mantenimiento, adecuación, conservación y rehabilitación en instalaciones dependientes de la CONANP 2016.",16,Comisión Nacional de Áreas Naturales Protegidas,35,0,0,0,46914948,2017,,0
'15178120004,Proyecto integral para la ampliación y adecuación de los helipuertos de la Procuraduría General de la República.,17,Dirección General de Recursos Materiales y Servicios Generales,9,0,0,0,123776818,2017,,0
'1418T4O0027,Modernización de la infraestructura de llenaderas I-II para el sostenimiento de la capacidad instalada en el llenado de amoniaco por carro tanques y auto tanques en el Complejo Petroquímico Cosoleacaque,52,Pemex Fertilizantes,30,0,0,0,130577479,2017,,0
'15095100002,Otros servicios relacionados con la obra publica 2015,9,Dirección General de Puertos,35,0,0,0,31970559,2017,,0
'1616B000013,"Proyecto rehabilitación del colector centro-norte de puerto Vallarta, Jalisco.",16,Comisión Nacional del Agua,14,20.594037,-105.242033,0,486563728,2017,,0
'0818T4N0009,Rehabilitación de infraestructura inmobiliaria,52,Pemex Transformación Industrial,35,0,0,10.91,333449798,2017,,2363368
'14071120001,Equipamiento del Laboratorio Central de Pruebas,7,Dirección General de Industria Militar,15,0,0,88,9164893,2017,,1196548
'1616B000015,"Construcción de la presa de almacenamiento y zona de riego La Maroma (El Jordán), municipios de Villa de Guadalupe y Matehuala, estado de San Luis Potosí.",16,Comisión Nacional del Agua,24,23.454,-100.727,0.08,248429765,2017,,214026
'14132120009,Desarrollo del Sistema de Mando y Control de la Armada de México,13,Dirección General de Investigación y Desarrollo,34,0,0,0,32401009,2017,,0
'1516B000087,Mantenimiento de la Infraestructura para la Protección de Áreas Productivas Región Zona Sur (2016).,16,Comisión Nacional del Agua,35,0,0,0,144794660,2017,,0
'1515QEZ0004,Programa de mantenimiento de protección civil para el inmueble sede de oficinas centrales de la Procuraduría Agraria.,15,Procuraduría Agraria,9,0,0,0,5471956,2016,,0
'11096280007,Bosque Bonito - La Cieneguilla.,9,Centro SCT Chihuahua,8,30.707937,-105.100169,0,146195090,2017,,0
'1609C000001,Infraestructura para Sistemas y Equipos para la Navegación y Control del Tránsito Aéreo.,9,Servicios a la Navegación en el Espacio Aéreo Mexicano,35,0,0,15.6,48243573,2017,,7296673
'1627A000005,Equipo Topográfico Estaciones Totales,27,Instituto de Administración y Avalúos de Bienes Nacionales,9,0,0,0,1084635,,Gobierno,0
'14095110012,Programa de sustitución de parque vehicular terrestre REMAFE e inspección,9,Dirección General de Marina Mercante,35,0,0,0,28592649,2015,,0
'1606HKA0002,Adquisición de Equipo de Seguridad y Control de Acceso,6,Servicio de Administración y Enajenación de Bienes,9,0,0,0,4342094,,,0
'1216B000053,Programa de Proyectos y Diseños Ejecutivos de Zonas de Riego.,16,Comisión Nacional del Agua,23,0,0,22.45,6125932,2017,,0
'1118T4M0045,Suministro de agua de la presa a Boca toma las Pilas,52,Pemex Transformación Industrial,20,16.209964,-95.172104,9.99,286693620,2016,,0
'1218TOQ0004,CONSTRUCCIÓN DE LÍNEAS Y SUBESTACIONES DE 85kV PARA LA ZONA DE DISTRIBUCIÓN PACHUCA,53,Comisión Federal de Electricidad,13,20.16,-98.79,0,384212532,2016,,0
'15092140003,Programa contingente de liberación del derecho de vía para carreteras concesionadas y asociaciones público-privadas 2016,9,Dirección General de Desarrollo Carretero,35,0,0,0,319705587,2016,,0
'16071110001,"SUSTITUCIÓN DE ANTENAS LOG PERIODIC PARA OPERACIÓN CON EQUIPOS DE RADIO FALCON III, INSTALADAS EN EL EDIFICIO DE LA SRÍA. DEF. NAL. Y EN EL CE.COM. S.D.N.",7,Jefatura del Estado Mayor de la Defensa Nacional,35,0,0,0,35765253,2017,,0
'14096500037,Altotonga-La Ventilla,9,Centro SCT Veracruz,30,19.763703,-97.237827,48.28,50298226,2016,Comunicaciones y Transportes,12357801
'10096270002,E.C.F  México  No  190   Ranchería Jatón Chacaljemel.,9,Centro SCT Chiapas,7,16.190601,-92.100762,33.33,16564526,2016,,0
'11093110020,"Paso Superior Vehicular en la Av. de las Industrias A-1614 + 398.91, en Chihuahua, Chihuahua.",9,Dirección General de Desarrollo Ferroviario y Multimodal,8,28.6652,-106.0804,0,86431651,2016,,0
'1416B000080,"Conservación, Mantenimiento y Mejoramiento del Sistema del Plan de Acción Inmediata (PAI) Zona Norte para Abastecimiento de Agua en Bloque",16,Comisión Nacional del Agua,35,0,0,97.91,94205196,2015,Desarrollo Social,3308817
'1416B000101,"Evaluación de riesgos de falla en bordos, canales, cauces federales, e infraestructura del Sistema Hidrológico del Valle de México",16,Comisión Nacional del Agua,9,0,0,0,13223036,2017,Medio Ambiente,0
'15116000005,Programa de Formación de Recursos Humanos Basada en Competencias (PROFORHCOM). Adquisición de Equipamiento 2016. Dirección General de Educación Tecnológica Agropecuaria (DGETA),11,Subsecretaría de Educación Media Superior,35,0,0,0,33569283,2016,Educación,0
'1511L4J0005,"Programa de Adquisiciones de Tecnologías de la Información y las Comunicaciones para Apoyo del Trabajo de Investigación y Docencia del Cinvestav, Financiado con Recursos Fiscales y Propios.",11,Centro de Investigación y de Estudios Avanzados del Instituto Politécnico Nacional,35,0,0,100,18477346,2016,Desarrollo económico,15715005
'15096520008,E.C. Sombrerete/Colonia González Ortega - Col. Morelos.,9,Centro SCT Zacatecas,32,23.761616,-103.539295,100,16013691,2017,Comunicaciones y Transportes,11999980
'1607HXA0025,"Demolición de la U.H.M. Campeche I, Camp.",7,Instituto de Seguridad Social para las Fuerzas Armadas Mexicanas,4,19.840237,-90.533317,,894754,2017,Desarrollo Social,
'1421W3N0014,"Estudios de pre inversión para el proyecto Calakmul, en el Edo. de Campeche.",21,Fondo Nacional de Fomento al Turismo,4,0,0,0,19889650,2017,,0
'1318TOQ0050,ACTUALIZACIÓN DE SISTEMAS DE ENERGÍA ININTERRUMPIBLE DEL CENTRO NACIONAL DE CONTROL DE ENERGÍA 2013 - 2015,18,Centro Nacional de Control de Energía,35,0,0,60,103957495,2017,Energía,0
'1316B000181,"Estudios y proyectos de los bordos de almacenamiento del proyecto de Bordos de Sinaloa en las cuencas de los Ríos Acaponeta, Mocorito, El Fuerte, Piaxtla, Elota, y Quelite.",16,Comisión Nacional del Agua,35,0,0,34.31,107388436,2015,"Agricultura, Ganadería, Desarrollo Rural, Pesca y Alimentación",8000000
'1516B000047,Conservación y Rehabilitación de Áreas de Temporal en el estado de Tamaulipas.,16,Comisión Nacional del Agua,28,0,0,94.14,28773503,2016,"Agricultura, Ganadería, Desarrollo Rural, Pesca y Alimentación",26293553
'1412NCD0002,Proyecto de Actualización del Sistema Eléctrico 2014-2017,12,Instituto Nacional de Enfermedades Respiratorias Ismael Cosío Villegas,9,19.291226,-99.158403,90,51657066,2017,,29499535
'1512NBV0002,"ADQUISICIÓN DE UN ACELERADOR LINEAL DE DOBLE ENERGÍA CON BUNKER PARA EL INCAN, 2016-2017",12,Instituto Nacional de Cancerología,9,0,0,99,185965440,2017,,102000000
'1510K2H0001,"Ingenierías: Eléctrica, Gas y Aire Acondicionado",10,Centro Nacional de Metrología,22,0,0,100,3256734,2016,Desarrollo económico,2974948
'1218T4L0025,Proyecto Integral Veracruz,52,Pemex Exploración y Producción,35,0,0,20.32,78540213093,2017,Energía,2401413017
'1318T4M0001,Adquisición de equipos de medición para realizar actividades de higiene industrial en Pemex Refinación,52,Pemex Transformación Industrial,35,0,0,0.68,60698774,2017,Energía,0
'1318T4M0006,Mantenimiento de la capacidad producción de la Refinería de Salamanca 2014-2018,52,Pemex Transformación Industrial,11,0,0,61.12,9706525090,2017,Energía,854688510
'1118TOQ0038,Construcción de líneas de transmisión y subestaciones Baja - Interconectado Norte,53,Comisión Federal de Electricidad,35,0,0,54.17,243036844,2017,Energía,459996
'1450GYR0093,Reestructuración del Hospital General Regional No.196 Fidel Velázquez de Ecatepec.,50,Instituto Mexicano del Seguro Social,15,19.5288047,-99.0311949,24,81803832,2017,Salud,3997498
'1418TOQ0067,ACTUALIZACIÓN DEL EQUIPO DE CÓMPUTO EN LAS SUBAREAS DE CONTROL DE CFE 2014-2016,18,Centro Nacional de Control de Energía,35,0,0,0,14838561,2016,Energía,0
'1418TOQ0072,ACTUALIZACIÓN DE EQUIPO DE LABORATORIO Y MEDICIÓN DEL CENTRO NACIONAL DE CONTROL DE ENERGÍA PARA LA OPERACIÓN DEL SISTEMA ELÉCTRICO NACIONAL (2014-2016),18,Centro Nacional de Control de Energía,35,0,0,70,9871398,2016,Energía,0
'12096350045,E.C. (Apaxco-Tequixquiac)-Loma Bonita,9,Centro SCT México,15,19.944167,-99.145961,,17492947,2017,Comunicaciones y Transportes,
'1316B000194,"Atender el desastre natural ocasionado por la ocurrencia de  lluvia severa del 9 al 13 de septiembre de 2013, en los municipios de Chihuahua y Juárez, del estado de Chihuahua",16,Comisión Nacional del Agua,8,28.652,-106.8666,0,1322303585,2017,,0
'1312NEF0010,Proyecto para la producción de vacunas sIPV-Pentavalente.- 2014-2017,12,"Laboratorios de Biológicos y Reactivos de México, S.A. de C.V.",15,19.62205387,-99.20143604,0,233537876,2017,,0
'14389ZY0002,Fortalecimiento de la planta piloto de CIAD-Culiacán para el desarrollo de proyectos alimenticios de alto valor agregado.,38,"Centro de Investigación en Alimentación y Desarrollo, A.C.",25,24.59119,-107.39151,0,27671405,2017,,0
'0427A000004,"Estudio, proyecto y obras de construcción del puerto fronterizo Nueva Orizaba, Chis.",27,Instituto de Administración y Avalúos de Bienes Nacionales,7,16.077,-90.6317,66.5,64696913,2016,Gobierno,0
'14132160035,Adquisición de vehículos para operaciones navales,13,Dirección General de Servicios,9,0,0,100,197027121,2016,Seguridad,130488812
'1510K2N0001,Programa de Mantenimiento Preventivo de Equipos,10,"Exportadora de Sal, S.A. de C.V.",35,0,0,100,43962517,2016,Desarrollo económico,39541189
'1316B000188,Estudios electromagnéticos en el sistema Cutzamala de la Presa Colorines a la Planta Potabilizadora Los Berros,16,Comisión Nacional del Agua,15,0,0,38.26,51464108,2016,Desarrollo Social,0
'1118T4N0004,Cruzamientos direccionados de ductos en ríos de la zona sur,52,Pemex Logística,35,0,0,73.28,993428002,2017,,26113354
'1450GYR0099,Ampliación y Remodelación de Quirófanos y Área de Terapia Intensiva Postquirúrgica del Hospital de Cardiología del Centro Médico Nacional Siglo XXI.,50,Instituto Mexicano del Seguro Social,9,19.407204,-99.15508,1,112407084,2017,Salud,795328
'103 01 101,Integral El Golpe-Puerto Ceiba,52,Pemex Exploración y Producción,27,18.2,-92.97,95.14,53042791371,2017,Energía,2145909766
'1412NDE0001,Programa de Inversión de Mantenimiento 2015-2016,12,Instituto Nacional de Perinatología Isidro Espinosa de los Reyes,9,0,0,24.88,21386025,2015,Salud,0
'1136E000006,"Remodelación, adecuación, ampliación, amueblado y equipado del CEFERESO  No. 5 Oriente, ubicado en el municipio de Villa Aldama, Veracruz.",4,Prevención y Readaptación Social,30,19.653581,-97.220764,97.39,4372045175,2017,,28235939
'143890K0003,DESARROLLO DE LABORATORIOS DE TECNOLOGÍAS Y SERVICIOS ESPECIALIZADOS PARA EL SECTOR AERONAUTICO.,38,"Centro de Investigación y Desarrollo Tecnológico en Electroquímica, S.C.",22,20.490811,-100.222162,100,21313705,2016,Desarrollo económico,5000000
'1450GYR0043,"Sustitución de la Unidad de Medicina Familiar No. 20 de 5 consultorios en el Municipio de Delicias, Chihuahua.",50,Instituto Mexicano del Seguro Social,8,28.16075,-105.471919,1,73828617,2017,Salud,0
'1511A3Q0027,"Programa de Adquisiciones de Bienes no Asociados a la Obra Pública 2016 para Educación Superior (Licenciatura), Foráneas. UNAM.",11,Universidad Nacional Autónoma de México,35,0,0,100,29810538,2016,Educación,3408957
'15132160012,"Remodelación del Hospital General Naval de Alta Especialidad, en México D.F.",13,Dirección General de Servicios,9,19.43,-99.13,6.25,955246350,2017,,55819809
'0918T4M0046,Adquisición de 1 Buque tanque de contado y/o por arrendamiento financiero,52,Pemex Logística,30,19.497583,-96.549597,25.33,622758233,2017,Energía,71775431
'093 98 093,Integral Poza Rica,52,Pemex Exploración y Producción,35,0,0,64.08,79188482439,2017,Energía,2275352360
'1218T4M0023,Rehabilitación de tanques de la GTD,52,Pemex Logística,35,0,0,53.77,329838534,2017,Energía,70054247
'1450GYR0063,Equipo de limpieza 2016.,50,Instituto Mexicano del Seguro Social,35,0,0,0,139767155,2017,,0
'153890G0002,Programa de reemplazo y acondicionamiento de equipos obsoletos de las áreas sustantivas 2016.,38,"CIATEC, A.C. ""Centro de Innovación Aplicada en Tecnologías Competitivas""",11,0,0,100,19629685,2016,Desarrollo económico,12485887
'1450GYR0058,"Construcción de un nuevo Hospital General Regional (HGR), de 260 camas en el municipio de El Marqués, Querétaro.",50,Instituto Mexicano del Seguro Social,22,20.64709,-100.336645,26,1601163871,2017,Salud,194900643
'143890M0001,Construcción del Edificio para Actividades Docentes y Laboratorios de Políticas Públicas,38,"Centro de Investigación y Docencia Económicas, A.C.",9,19.37388,-99.264235,30,297841500,2016,Desarrollo económico,0
'1421W3N0006,Mantenimiento y Operación de los Centros Integralmente Planeados de la Península 2015,21,Fondo Nacional de Fomento al Turismo,3,0,0,100,48676502,2015,Turismo,340162
'143891M0001,Renovación de Tecnologías de la Información 2015.,38,INFOTEC Centro de Investigación e Innovación en Tecnologías de la Información y Comunicación,35,0,0,23,45824468,2015,Desarrollo económico,5679127
'15132160013,Adquisición e Integración de Equipos de Misión y Comunicación para Unidades de Patrulla Marítima,13,Dirección General de Servicios,9,0,0,0,342298745,2017,Seguridad,100809847
'1510LAU0006,Estudios Geológico- Ambientales,10,Servicio Geológico Mexicano,35,0,0,98.1,54179156,2017,Desarrollo económico,7672961
'1510LAU0007,Investigación aplicada a las Ciencias de la Tierra,10,Servicio Geológico Mexicano,34,0,0,92.1,54719617,2017,Desarrollo económico,10709258
'1516RHQ0003,"Segunda Etapa del Centro Regional de Manejo de Fuego Región Sureste de la CONAFOR, en Campeche, Campeche.",16,Comisión Nacional Forestal,4,0,0,0,20146256,2017,,0
'0818T4N0001,Modernización y rehabilitación de las instalaciones del sistema de suministro y tratamiento de agua del CPG Nuevo Pemex,52,Pemex Transformación Industrial,27,0,0,44.7,1313084793,2017,Energía,253072376
'153890U0002,Programa de actualización del equipo de cómputo  2016,38,Centro de Investigación en Química Aplicada,5,0,0,100,1343179,2016,Desarrollo económico,555875
'153890W0001,"Construcción del edificio de Investigación, Docencia y Servicios de la Unidad Peninsular",38,Centro de Investigaciones y Estudios Superiores en Antropología Social,31,21.133833,-89.778,92.94,31304183,2017,,22170185
